19:45:48.64> $GNGGA,164703.8,5546.89065,N,03742.65534,E,1,15,0.9,139.5,M,14.4,M,,*4C
$GNHDT,,*51
#227#1958#0#71148,567
19:45:48.80> $GNGGA,164704.0,5546.89065,N,03742.65534,E,1,14,0.9,139.5,M,14.4,M,,*42
$GNHDT,,*51
#227#1958#0#71148,77
19:45:49.00> $GNGGA,164704.2,5546.89064,N,03742.65529,E,1,14,0.9,139.4,M,14.4,M,,*4C
$GNHDT,,*51
#227#1958#0#71148,973
19:45:49.20> $GNGGA,164704.4,5546.89062,N,03742.65526,E,1,14,0.9,139.4,M,14.4,M,,*43
$GNHDT,,*51
#227#1958#0#71149,176
19:45:49.41> $GNGGA,164704.6,5546.89060,N,03742.65523,E,1,14,0.9,139.3,M,14.4,M,,*41
$GNHDT,,*51
#227#1958#0#71149,379
19:45:49.59> $GNGGA,164704.8,5546.89059,N,03742.65520,E,1,14,0.9,139.3,M,14.4,M,,*46
$GNHDT,,*51
#227#1958#0#71149,583
19:45:49.80> $GNGGA,164705.0,5546.89058,N,03742.65518,E,1,15,0.9,139.2,M,14.4,M,,*45
$GNHDT,,*51
#227#1958#0#71149,786
19:45:50.00> $GNGGA,164705.2,5546.89057,N,03742.65517,E,1,15,0.9,139.2,M,14.4,M,,*47
$GNHDT,,*51
#227#1958#0#71149,989
19:45:50.20> $GNGGA,164705.4,5546.89055,N,03742.65515,E,1,15,0.9,139.2,M,14.4,M,,*41
$GNHDT,,*51
#227#1958#0#71150,192
19:45:50.41> $GNGGA,164705.6,5546.89054,N,03742.65514,E,1,15,0.9,139.2,M,14.4,M,,*43
$GNHDT,,*51
#227#1958#0#71150,395
19:45:50.59> $GNGGA,164705.8,5546.89054,N,03742.65513,E,1,15,0.9,139.2,M,14.4,M,,*4A
$GNHDT,,*51
#227#1958#0#71150,598
19:45:50.80> $GNGGA,164706.0,5546.89053,N,03742.65512,E,1,14,0.9,139.2,M,14.4,M,,*46
$GNHDT,,*51
#227#1958#0#71150,801
19:45:51.00> $GNGGA,164706.2,5546.89052,N,03742.65511,E,1,14,0.9,139.1,M,14.4,M,,*45
$GNHDT,,*51
#227#1958#0#71150,801
19:45:51.20> $GNGGA,164706.4,5546.89051,N,03742.65511,E,1,14,0.9,139.1,M,14.4,M,,*40
$GNHDT,,*51
#227#1958#0#71151,004
19:45:51.39> $GNGGA,164706.6,5546.89051,N,03742.65510,E,1,15,0.9,139.1,M,14.4,M,,*42
$GNHDT,,*51
#227#1958#0#71151,208
19:45:51.59> $GNGGA,164706.8,5546.89050,N,03742.65510,E,1,15,0.9,139.2,M,14.4,M,,*4E
$GNHDT,,*51
#227#1958#0#71151,411
19:45:52.59> $GNGGA,164707.8,5546.89047,N,03742.65509,E,1,15,0.9,139.2,M,14.4,M,,*41
$GNHDT,,*51
#227#1958#0#71152,426
19:45:52.80> $GNGGA,164708.0,5546.89047,N,03742.65508,E,1,15,0.9,139.2,M,14.4,M,,*47
$GNHDT,,*51
#227#1958#0#71152,629
19:45:53.00> $GNGGA,164708.2,5546.89046,N,03742.65508,E,1,15,0.9,139.2,M,14.4,M,,*44
$GNHDT,,*51
#227#1958#0#71152,833
19:45:53.20> $GNGGA,164708.4,5546.89046,N,03742.65508,E,1,15,0.9,139.2,M,14.4,M,,*42
$GNHDT,,*51
#227#1958#0#71153,036
19:45:53.41> $GNGGA,164708.6,5546.89045,N,03742.65508,E,1,15,0.9,139.2,M,14.4,M,,*43
$GNHDT,,*51
#227#1958#0#71153,239
19:45:53.61> $GNGGA,164708.8,5546.89045,N,03742.65508,E,1,15,0.9,139.2,M,14.4,M,,*4D
$GNHDT,,*51
#227#1958#0#71153,442
19:45:53.80> $GNGGA,164709.0,5546.89045,N,03742.65508,E,1,15,0.9,139.2,M,14.4,M,,*44
$GNHDT,,*51
#227#1958#0#71153,645
19:45:54.00> $GNGGA,164709.2,5546.89045,N,03742.65508,E,1,15,0.9,139.2,M,14.4,M,,*46
$GNHDT,,*51
#227#1958#0#71153,848
19:45:54.20> $GNGGA,164709.4,5546.89045,N,03742.65508,E,1,15,0.9,139.2,M,14.4,M,,*40
$GNHDT,,*51
#227#1958#0#71154,051
19:45:54.41> $GNGGA,164709.6,5546.89045,N,03742.65508,E,1,15,0.9,139.2,M,14.4,M,,*42
$GNHDT,,*51
#227#1958#0#71154,254
19:45:54.59> $GNGGA,164709.8,5546.89045,N,03742.65508,E,1,15,0.9,139.2,M,14.4,M,,*4C
$GNHDT,,*51
#227#1958#0#71154,458
19:45:54.80> $GNGGA,164710.0,5546.89045,N,03742.65508,E,1,15,0.9,139.2,M,14.4,M,,*4C
$GNHDT,,*51
#227#1958#0#71154,661
19:45:55.00> $GNGGA,164710.2,5546.89045,N,03742.65508,E,1,15,0.9,139.2,M,14.4,M,,*4E
$GNHDT,,*51
#227#1958#0#71154,864
19:45:55.20> $GNGGA,164710.4,5546.89043,N,03742.65506,E,1,20,0.8,139.3,M,14.4,M,,*46
$GNHDT,,*51
#227#1958#0#71155,067
19:45:55.41> $GNGGA,164710.6,5546.89042,N,03742.65505,E,1,20,0.8,139.3,M,14.4,M,,*46
$GNHDT,,*51
#227#1958#0#71155,27
19:45:55.61> $GNGGA,164710.8,5546.89041,N,03742.65504,E,1,20,0.8,139.3,M,14.4,M,,*4A
$GNHDT,,*51
#227#1958#0#71155,473
19:45:55.80> $GNGGA,164711.0,5546.89040,N,03742.65503,E,1,20,0.8,139.3,M,14.4,M,,*45
$GNHDT,,*51
#227#1958#0#71155,676
19:45:56.00> $GNGGA,164711.2,5546.89039,N,03742.65502,E,1,20,0.8,139.3,M,14.4,M,,*48
$GNHDT,,*51
#227#1958#0#71155,879
19:45:56.20> $GNGGA,164711.4,5546.89038,N,03742.65501,E,1,20,0.8,139.3,M,14.4,M,,*4C
$GNHDT,,*51
#227#1958#0#71156,083
19:45:56.41> $GNGGA,164711.6,5546.89037,N,03742.65501,E,1,20,0.8,139.4,M,14.4,M,,*46
$GNHDT,,*51
#227#1958#0#71156,286
19:45:56.61> $GNGGA,164711.8,5546.89037,N,03742.65500,E,1,20,0.8,139.4,M,14.4,M,,*49
$GNHDT,,*51
#227#1958#0#71156,489
19:45:56.81> $GNGGA,164712.0,5546.89036,N,03742.65500,E,1,20,0.8,139.4,M,14.4,M,,*43
$GNHDT,,*51
#227#1958#0#71156,692
19:45:57.02> $GNGGA,164712.2,5546.89036,N,03742.65500,E,1,20,0.8,139.4,M,14.4,M,,*41
$GNHDT,,*51
#227#1958#0#71156,895
19:45:57.22> $GNGGA,164712.4,5546.89036,N,03742.65499,E,1,20,0.8,139.4,M,14.4,M,,*46
$GNHDT,,*51
#227#1958#0#71157,098
19:45:57.41> $GNGGA,164712.6,5546.89035,N,03742.65499,E,1,20,0.8,139.4,M,14.4,M,,*47
$GNHDT,,*51
#227#1958#0#71157,301
19:45:57.61> $GNGGA,164712.8,5546.89035,N,03742.65499,E,1,20,0.8,139.4,M,14.4,M,,*49
$GNHDT,,*51
#227#1958#0#71157,504
19:45:57.83> $GNGGA,164713.0,5546.89034,N,03742.65499,E,1,20,0.8,139.4,M,14.4,M,,*41
$GNHDT,,*51
#227#1958#0#71157,708
19:45:58.02> $GNGGA,164713.2,5546.89034,N,03742.65499,E,1,20,0.8,139.4,M,14.4,M,,*43
$GNHDT,,*51
#227#1958#0#71157,911
19:45:58.20> $GNGGA,164713.4,5546.89034,N,03742.65499,E,1,20,0.8,139.5,M,14.4,M,,*44
$GNHDT,,*51
#227#1958#0#71158,114
19:45:58.41> $GNGGA,164713.6,5546.89034,N,03742.65499,E,1,20,0.8,139.5,M,14.4,M,,*46
$GNHDT,,*51
#227#1958#0#71158,317
19:45:58.61> $GNGGA,164713.8,5546.89033,N,03742.65499,E,1,20,0.8,139.5,M,14.4,M,,*4F
$GNHDT,,*51
#227#1958#0#71158,52
19:45:58.81> $GNGGA,164714.0,5546.89033,N,03742.65499,E,1,20,0.8,139.5,M,14.4,M,,*40
$GNHDT,,*51
#227#1958#0#71158,723
19:45:59.00> $GNGGA,164714.2,5546.89034,N,03742.65498,E,1,20,0.8,139.5,M,14.4,M,,*44
$GNHDT,,*51
#227#1958#0#71158,926
19:45:59.20> $GNGGA,164714.4,5546.89033,N,03742.65495,E,1,20,0.8,139.5,M,14.4,M,,*48
$GNHDT,,*51
#227#1958#0#71159,129
19:45:59.41> $GNGGA,164714.6,5546.89033,N,03742.65494,E,1,20,0.8,139.5,M,14.4,M,,*4B
$GNHDT,,*51
#227#1958#0#71159,333
19:45:59.61> $GNGGA,164714.8,5546.89033,N,03742.65492,E,1,20,0.8,139.5,M,14.4,M,,*43
$GNHDT,,*51
#227#1958#0#71159,536
19:45:59.81> $GNGGA,164715.0,5546.89033,N,03742.65490,E,1,20,0.8,139.6,M,14.4,M,,*4B
$GNHDT,,*51
#227#1958#0#71159,739
19:46:00.02> $GNGGA,164715.2,5546.89033,N,03742.65487,E,1,20,0.8,139.6,M,14.4,M,,*4F
$GNHDT,,*51
#227#1958#0#71159,942
19:46:00.20> $GNGGA,164715.4,5546.89035,N,03742.65478,E,1,21,0.8,139.6,M,14.4,M,,*4E
$GNHDT,,*51
#227#1958#0#71160,145
19:46:00.41> $GNGGA,164715.6,5546.89038,N,03742.65471,E,1,21,0.8,139.7,M,14.4,M,,*49
$GNHDT,,*51
#227#1958#0#71160,348
19:46:00.61> $GNGGA,164715.8,5546.89040,N,03742.65464,E,1,21,0.8,139.8,M,14.4,M,,*43
$GNHDT,,*51
#227#1958#0#71160,551
19:46:00.81> $GNGGA,164716.0,5546.89042,N,03742.65459,E,1,21,0.8,139.8,M,14.4,M,,*44
$GNHDT,,*51
#227#1958#0#71160,754
19:46:01.00> $GNGGA,164716.2,5546.89044,N,03742.65454,E,1,21,0.8,139.8,M,14.4,M,,*4D
$GNHDT,,*51
#227#1958#0#71160,958
19:46:01.20> $GNGGA,164716.4,5546.89045,N,03742.65449,E,1,20,0.8,139.9,M,14.4,M,,*46
$GNHDT,,*51
#227#1958#0#71161,161
19:46:01.41> $GNGGA,164716.6,5546.89046,N,03742.65446,E,1,20,0.8,139.9,M,14.4,M,,*48
$GNHDT,,*51
#227#1958#0#71161,364
19:46:01.61> $GNGGA,164716.8,5546.89047,N,03742.65442,E,1,21,0.8,140.0,M,14.4,M,,*45
$GNHDT,,*51
#227#1958#0#71161,567
19:46:01.81> $GNGGA,164717.0,5546.89047,N,03742.65439,E,1,20,0.8,140.0,M,14.4,M,,*41
$GNHDT,,*51
#227#1958#0#71161,77
19:46:02.02> $GNGGA,164717.2,5546.89048,N,03742.65436,E,1,20,0.8,140.1,M,14.4,M,,*42
$GNHDT,,*51
#227#1958#0#71161,973
19:46:02.20> $GNGGA,164717.4,5546.89049,N,03742.65434,E,1,20,0.8,140.1,M,14.4,M,,*47
$GNHDT,,*51
#227#1958#0#71162,176
19:46:02.41> $GNGGA,164717.6,5546.89051,N,03742.65432,E,1,20,0.8,140.1,M,14.4,M,,*4A
$GNHDT,,*51
#227#1960#3#71162,379
19:46:02.61> $GNGGA,164717.8,5546.89052,N,03742.65431,E,1,21,0.8,140.2,M,14.4,M,,*46
$GNHDT,,*51
#227#1960#3#71162,583
19:46:02.83> $GNGGA,164718.0,5546.89054,N,03742.65430,E,1,21,0.8,140.2,M,14.4,M,,*46
$GNHDT,,*51
#227#1964#7#71162,786
19:46:03.00> $GNGGA,164718.2,5546.89061,N,03742.65434,E,1,21,0.8,140.2,M,14.4,M,,*46
$GNHDT,,*51
#227#1964#7#71162,989
19:46:03.20> $GNGGA,164718.4,5546.89064,N,03742.65433,E,1,21,0.8,140.3,M,14.4,M,,*43
$GNHDT,,*51
#227#1964#7#71163,192
19:46:03.41> $GNGGA,164718.6,5546.89066,N,03742.65432,E,1,21,0.8,140.3,M,14.4,M,,*42
$GNHDT,,*51
#227#1967#5#71163,395
19:46:03.61> $GNGGA,164718.8,5546.89069,N,03742.65437,E,1,21,0.8,140.3,M,14.4,M,,*46
$GNHDT,,*51
#227#1967#5#71163,598
19:46:03.81> $GNGGA,164719.0,5546.89071,N,03742.65441,E,1,21,0.8,140.3,M,14.4,M,,*47
$GNHDT,,*51
#227#1969#3#71163,801
19:46:04.02> $GNGGA,164719.2,5546.89074,N,03742.65445,E,1,21,0.8,140.3,M,14.4,M,,*44
$GNHDT,,*51
#227#1969#3#71164,004
19:46:04.20> $GNGGA,164719.4,5546.89076,N,03742.65448,E,1,21,0.8,140.3,M,14.4,M,,*4D
$GNHDT,,*51
#227#1969#3#71164,208
19:46:04.41> $GNGGA,164719.6,5546.89077,N,03742.65457,E,1,21,0.8,140.3,M,14.4,M,,*40
$GNHDT,,*51
#227#1972#5#71164,411
19:46:04.61> $GNGGA,164719.8,5546.89077,N,03742.65466,E,1,21,0.8,140.3,M,14.4,M,,*4C
$GNHDT,,*51
#227#1972#5#71164,614
19:46:04.81> $GNGGA,164720.0,5546.89078,N,03742.65475,E,1,21,0.8,140.3,M,14.4,M,,*43
$GNHDT,,*51
#227#1977#9#71164,817
19:46:05.02> $GNGGA,164720.2,5546.89078,N,03742.65480,E,1,21,0.8,140.3,M,14.4,M,,*4B
$GNHDT,,*51
#227#1977#9#71164,817
19:46:05.22> $GNGGA,164720.4,5546.89081,N,03742.65487,E,1,21,0.8,140.3,M,14.4,M,,*4C
$GNHDT,,*51
#227#1977#9#71165,02
19:46:05.41> $GNGGA,164720.6,5546.89086,N,03742.65494,E,1,21,0.8,140.3,M,14.4,M,,*4B
$GNHDT,,*51
#227#1977#9#71165,223
19:46:05.61> $GNGGA,164720.8,5546.89093,N,03742.65498,E,1,21,0.8,140.3,M,14.4,M,,*4D
$GNHDT,,*51
#228#1993#31#71165,426
19:46:05.81> $GNGGA,164721.0,5546.89096,N,03742.65505,E,1,21,0.8,140.3,M,14.4,M,,*44
$GNHDT,,*51
#228#1993#31#71165,629
19:46:06.00> $GNGGA,164721.2,5546.89102,N,03742.65509,E,1,21,0.8,140.2,M,14.4,M,,*47
$GNHDT,,*51
#227#2016#45#71165,833
19:46:06.20> $GNGGA,164721.4,5546.89111,N,03742.65513,E,1,21,0.8,140.2,M,14.4,M,,*48
$GNHDT,,*51
#227#2016#45#71166,036
19:46:06.41> $GNGGA,164721.6,5546.89123,N,03742.65515,E,1,21,0.8,140.3,M,14.4,M,,*4C
$GNHDT,,*51
#227#2016#45#71166,239
19:46:06.61> $GNGGA,164721.8,5546.89138,N,03742.65513,E,1,21,0.8,140.3,M,14.4,M,,*4E
$GNHDT,,*51
#227#2053#73#71166,442
19:46:06.83> $GNGGA,164722.0,5546.89153,N,03742.65512,E,1,21,0.8,140.2,M,14.4,M,,*48
$GNHDT,,*51
#227#2053#73#71166,645
19:46:07.00> $GNGGA,164722.2,5546.89170,N,03742.65503,E,1,21,0.8,140.2,M,14.4,M,,*4B
$GNHDT,,*51
#227#2111#115#71166,848
19:46:07.20> $GNGGA,164722.4,5546.89188,N,03742.65498,E,1,21,0.8,140.1,M,14.4,M,,*4A
$GNHDT,,*51
#227#2111#115#71167,051
19:46:07.41> $GNGGA,164722.6,5546.89207,N,03742.65487,E,1,21,0.8,140.1,M,14.4,M,,*42
$GNHDT,,*51
#227#2111#115#71167,254
19:46:07.59> $GNGGA,164722.8,5546.89226,N,03742.65479,E,1,21,0.8,140.1,M,14.4,M,,*4E
$GNHDT,,*51
#227#2187#151#71167,458
19:46:07.81> $GNGGA,164723.0,5546.89241,N,03742.65470,E,1,21,0.8,140.1,M,14.4,M,,*4F
$GNHDT,,*51
#227#2187#151#71167,661
19:46:08.00> $GNGGA,164723.2,5546.89254,N,03742.65461,E,1,21,0.8,140.0,M,14.4,M,,*48
$GNHDT,,*51
#227#2261#147#71167,864
19:46:08.20> $GNGGA,164723.4,5546.89268,N,03742.65449,E,1,21,0.8,140.0,M,14.4,M,,*4B
$GNHDT,,*51
#227#2261#147#71168,067
19:46:08.41> $GNGGA,164723.6,5546.89282,N,03742.65436,E,1,21,0.8,140.0,M,14.4,M,,*45
$GNHDT,,*51
#227#2261#147#71168,27
19:46:08.61> $GNGGA,164723.8,5546.89297,N,03742.65424,E,1,21,0.8,140.0,M,14.4,M,,*4C
$GNHDT,,*51
#227#2331#139#71168,473
19:46:08.81> $GNGGA,164724.0,5546.89309,N,03742.65411,E,1,21,0.8,140.0,M,14.4,M,,*43
$GNHDT,,*51
#227#2331#139#71168,676
19:46:09.00> $GNGGA,164724.2,5546.89324,N,03742.65397,E,1,21,0.8,140.0,M,14.4,M,,*47
$GNHDT,,*51
#227#2405#147#71168,879
19:46:09.20> $GNGGA,164724.4,5546.89337,N,03742.65383,E,1,21,0.8,140.0,M,14.4,M,,*46
$GNHDT,,*51
#227#2405#147#71169,083
19:46:09.41> $GNGGA,164724.6,5546.89349,N,03742.65366,E,1,21,0.8,139.9,M,14.4,M,,*41
$GNHDT,,*51
#227#2405#147#71169,286
19:46:09.61> $GNGGA,164724.8,5546.89364,N,03742.65349,E,1,21,0.8,139.9,M,14.4,M,,*4D
$GNHDT,,*51
#227#2482#153#71169,489
19:46:09.81> $GNGGA,164725.0,5546.89380,N,03742.65331,E,1,21,0.8,139.9,M,14.4,M,,*41
$GNHDT,,*51
#227#2482#153#71169,692
19:46:10.00> $GNGGA,164725.2,5546.89394,N,03742.65312,E,1,21,0.8,139.9,M,14.4,M,,*47
$GNHDT,,*51
#227#2569#173#71169,895
19:46:10.20> $GNGGA,164725.4,5546.89410,N,03742.65292,E,1,21,0.8,139.9,M,14.4,M,,*43
$GNHDT,,*51
#227#2569#173#71170,098
19:46:10.41> $GNGGA,164725.6,5546.89427,N,03742.65271,E,1,21,0.8,139.9,M,14.4,M,,*48
$GNHDT,,*51
#227#2657#175#71170,301
19:46:10.61> $GNGGA,164725.8,5546.89443,N,03742.65249,E,1,21,0.8,139.9,M,14.4,M,,*4F
$GNHDT,,*51
#227#2657#175#71170,504
19:46:10.86> $GNGGA,164726.0,5546.89457,N,03742.65229,E,1,21,0.8,139.8,M,14.4,M,,*46
$GNHDT,,*51
#227#2657#175#71170,708
19:46:11.00> $GNGGA,164726.2,5546.89470,N,03742.65210,E,1,21,0.8,139.8,M,14.4,M,,*4B
$GNHDT,,*51
#227#2750#185#71170,911
19:46:11.20> $GNGGA,164726.4,5546.89484,N,03742.65189,E,1,21,0.8,139.8,M,14.4,M,,*45
$GNHDT,,*51
#227#2750#185#71171,114
19:46:11.41> $GNGGA,164726.6,5546.89498,N,03742.65163,E,1,21,0.8,139.8,M,14.4,M,,*4E
$GNHDT,,*51
#227#2846#191#71171,317
19:46:11.61> $GNGGA,164726.8,5546.89512,N,03742.65129,E,1,21,0.8,139.8,M,14.4,M,,*4D
$GNHDT,,*51
#227#2846#191#71171,52
19:46:11.81> $GNGGA,164727.0,5546.89526,N,03742.65091,E,1,21,0.8,139.9,M,14.4,M,,*40
$GNHDT,,*51
#227#2846#191#71171,723
19:46:12.00> $GNGGA,164727.2,5546.89537,N,03742.65052,E,1,21,0.8,139.9,M,14.4,M,,*4D
$GNHDT,,*51
#227#2951#209#71171,926
19:46:12.20> $GNGGA,164727.4,5546.89549,N,03742.65007,E,1,21,0.8,139.9,M,14.4,M,,*42
$GNHDT,,*51
#227#2951#209#71172,129
19:46:12.41> $GNGGA,164727.6,5546.89560,N,03742.64957,E,1,21,0.8,139.9,M,14.4,M,,*46
$GNHDT,,*51
#227#3071#239#71172,333
19:46:12.61> $GNGGA,164727.8,5546.89572,N,03742.64903,E,1,21,0.8,139.9,M,14.4,M,,*4A
$GNHDT,,*51
#227#3071#239#71172,536
19:46:12.81> $GNGGA,164728.0,5546.89580,N,03742.64845,E,1,21,0.8,139.8,M,14.4,M,,*42
$GNHDT,,*51
#227#3071#239#71172,739
19:46:13.00> $GNGGA,164728.2,5546.89586,N,03742.64782,E,1,21,0.8,139.8,M,14.4,M,,*42
$GNHDT,,*51
#227#3209#275#71172,942
19:46:13.20> $GNGGA,164728.4,5546.89589,N,03742.64718,E,1,21,0.8,139.8,M,14.4,M,,*48
$GNHDT,,*51
#227#3209#275#71173,145
19:46:13.41> $GNGGA,164728.6,5546.89593,N,03742.64652,E,1,21,0.8,139.8,M,14.4,M,,*4E
$GNHDT,,*51
#227#3360#301#71173,348
19:46:13.61> $GNGGA,164728.8,5546.89596,N,03742.64586,E,1,21,0.8,139.7,M,14.4,M,,*40
$GNHDT,,*51
#227#3360#301#71173,551
19:46:13.81> $GNGGA,164729.0,5546.89597,N,03742.64517,E,1,21,0.8,139.6,M,14.4,M,,*41
$GNHDT,,*51
#227#3360#301#71173,754
19:46:14.00> $GNGGA,164729.2,5546.89597,N,03742.64445,E,1,21,0.8,139.6,M,14.4,M,,*45
$GNHDT,,*51
#228#3531#341#71173,958
19:46:14.20> $GNGGA,164729.4,5546.89595,N,03742.64374,E,1,21,0.8,139.5,M,14.4,M,,*47
$GNHDT,,*51
#228#3531#341#71174,161
19:46:14.41> $GNGGA,164729.6,5546.89594,N,03742.64308,E,1,21,0.8,139.4,M,14.4,M,,*4E
$GNHDT,,*51
#227#3707#351#71174,364
19:46:14.59> $GNGGA,164729.8,5546.89592,N,03742.64245,E,1,21,0.8,139.4,M,14.4,M,,*4E
$GNHDT,,*51
#227#3707#351#71174,567
19:46:14.81> $GNGGA,164730.0,5546.89590,N,03742.64180,E,1,21,0.8,139.3,M,14.4,M,,*41
$GNHDT,,*51
#227#3707#351#71174,77
19:46:15.00> $GNGGA,164730.2,5546.89587,N,03742.64121,E,1,21,0.8,139.3,M,14.4,M,,*4E
$GNHDT,,*51
#227#3874#333#71174,973
19:46:15.20> $GNGGA,164730.4,5546.89582,N,03742.64066,E,1,21,0.8,139.2,M,14.4,M,,*4E
$GNHDT,,*51
#227#3874#333#71175,176
19:46:15.41> $GNGGA,164730.6,5546.89578,N,03742.64012,E,1,21,0.8,139.2,M,14.4,M,,*4A
$GNHDT,,*51
#227#4032#315#71175,379
19:46:15.61> $GNGGA,164730.8,5546.89577,N,03742.63958,E,1,21,0.8,139.1,M,14.4,M,,*48
$GNHDT,,*51
#227#4032#315#71175,583
19:46:15.81> $GNGGA,164731.0,5546.89577,N,03742.63904,E,1,21,0.8,139.1,M,14.4,M,,*48
$GNHDT,,*51
#227#4032#315#71175,786
19:46:16.00> $GNGGA,164731.2,5546.89576,N,03742.63850,E,1,21,0.8,139.0,M,14.4,M,,*4A
$GNHDT,,*51
#227#4179#293#71175,989
19:46:16.20> $GNGGA,164731.4,5546.89578,N,03742.63792,E,1,21,0.8,139.0,M,14.4,M,,*43
$GNHDT,,*51
#227#4179#293#71176,192
19:46:16.41> $GNGGA,164731.6,5546.89578,N,03742.63732,E,1,21,0.8,138.9,M,14.4,M,,*43
$GNHDT,,*51
#227#4325#291#71176,395
19:46:16.59> $GNGGA,164731.8,5546.89579,N,03742.63669,E,1,21,0.8,138.8,M,14.4,M,,*42
$GNHDT,,*51
#227#4325#291#71176,598
19:46:16.81> $GNGGA,164732.0,5546.89580,N,03742.63610,E,1,21,0.8,138.8,M,14.4,M,,*41
$GNHDT,,*51
#227#4325#291#71176,801
19:46:17.00> $GNGGA,164732.2,5546.89584,N,03742.63548,E,1,21,0.8,138.8,M,14.4,M,,*49
$GNHDT,,*51
#227#4479#307#71177,004
19:46:17.20> $GNGGA,164732.4,5546.89586,N,03742.63482,E,1,21,0.8,138.8,M,14.4,M,,*4A
$GNHDT,,*51
#227#4479#307#71177,208
19:46:17.41> $GNGGA,164732.6,5546.89589,N,03742.63409,E,1,21,0.8,138.7,M,14.4,M,,*4B
$GNHDT,,*51
#227#4657#355#71177,411
19:46:17.61> $GNGGA,164732.8,5546.89589,N,03742.63332,E,1,21,0.8,138.6,M,14.4,M,,*4B
$GNHDT,,*51
#227#4657#355#71177,411
19:46:17.81> $GNGGA,164733.0,5546.89592,N,03742.63251,E,1,21,0.8,138.6,M,14.4,M,,*4C
$GNHDT,,*51
#227#4657#355#71177,614
19:46:18.00> $GNGGA,164733.2,5546.89598,N,03742.63164,E,1,21,0.8,138.5,M,14.4,M,,*42
$GNHDT,,*51
#227#4864#413#71177,817
19:46:18.20> $GNGGA,164733.4,5546.89603,N,03742.63074,E,1,20,0.8,138.5,M,14.4,M,,*44
$GNHDT,,*51
#227#4864#413#71178,02
19:46:18.41> $GNGGA,164733.6,5546.89611,N,03742.62982,E,1,20,0.8,138.5,M,14.4,M,,*44
$GNHDT,,*51
#227#4864#413#71178,223
19:46:18.59> $GNGGA,164733.8,5546.89620,N,03742.62890,E,1,20,0.8,138.5,M,14.4,M,,*4A
$GNHDT,,*51
#227#5087#445#71178,426
19:46:18.81> $GNGGA,164734.0,5546.89630,N,03742.62799,E,1,20,0.8,138.5,M,14.4,M,,*42
$GNHDT,,*51
#227#5087#445#71178,629
19:46:19.39> $GNGGA,164734.2,5546.89643,N,03742.62710,E,1,20,0.8,138.5,M,14.4,M,,*45
$GNHDT,,*51
$GNGGA,164734.4,5546.89657,N,03742.62628,E,1,20,0.8,138.6,M,14.4,M,,*4F
$GNHDT,,*51
$GNGGA,164734.6,5546.89669,N,03742.62551,E,1,20,0.8,138.6,M,14.4,M,,*4D
$GNHDT,,*51
#227#5310#445#71179,239
19:46:19.59> $GNGGA,164734.8,5546.89679,N,03742.62481,E,1,20,0.8,138.5,M,14.4,M,,*4D
$GNHDT,,*51
#227#5516#411#71179,442
19:46:19.80> $GNGGA,164735.0,5546.89694,N,03742.62418,E,1,19,0.8,138.5,M,14.4,M,,*4D
$GNHDT,,*51
#227#5516#411#71179,645
19:46:19.98> $GNGGA,164735.2,5546.89706,N,03742.62360,E,1,19,0.8,138.5,M,14.4,M,,*4D
$GNHDT,,*51
#227#5684#335#71179,848
19:46:20.19> $GNGGA,164735.4,5546.89717,N,03742.62309,E,1,19,0.8,138.5,M,14.4,M,,*44
$GNHDT,,*51
#227#5684#335#71180,051
19:46:20.39> $GNGGA,164735.6,5546.89722,N,03742.62261,E,1,20,0.8,138.5,M,14.4,M,,*45
$GNHDT,,*51
#227#5684#335#71180,254
19:46:20.59> $GNGGA,164735.8,5546.89728,N,03742.62216,E,1,20,0.8,138.4,M,14.4,M,,*40
$GNHDT,,*51
#227#5818#267#71180,458
19:46:20.80> $GNGGA,164736.0,5546.89731,N,03742.62178,E,1,20,0.8,138.4,M,14.4,M,,*48
$GNHDT,,*51
#227#5818#267#71180,661
19:46:21.00> $GNGGA,164736.2,5546.89739,N,03742.62135,E,1,20,0.8,138.4,M,14.4,M,,*4B
$GNHDT,,*51
#227#5931#225#71180,864
19:46:21.19> $GNGGA,164736.4,5546.89748,N,03742.62097,E,1,20,0.8,138.4,M,14.4,M,,*42
$GNHDT,,*51
#227#5931#225#71181,067
19:46:21.39> $GNGGA,164736.6,5546.89751,N,03742.62051,E,1,20,0.8,138.3,M,14.4,M,,*45
$GNHDT,,*51
#227#5931#225#71181,27
19:46:21.59> $GNGGA,164736.8,5546.89755,N,03742.62009,E,1,20,0.8,138.3,M,14.4,M,,*42
$GNHDT,,*51
#227#6035#207#71181,473
19:46:21.80> $GNGGA,164737.0,5546.89757,N,03742.61972,E,1,20,0.8,138.2,M,14.4,M,,*4E
$GNHDT,,*51
#227#6035#207#71181,676
19:46:22.00> $GNGGA,164737.2,5546.89759,N,03742.61931,E,1,20,0.8,138.1,M,14.4,M,,*46
$GNHDT,,*51
#227#6132#193#71181,879
19:46:22.19> $GNGGA,164737.4,5546.89765,N,03742.61888,E,1,20,0.8,138.1,M,14.4,M,,*4C
$GNHDT,,*51
#227#6132#193#71182,083
19:46:22.39> $GNGGA,164737.6,5546.89773,N,03742.61847,E,1,20,0.8,138.1,M,14.4,M,,*4A
$GNHDT,,*51
#227#6132#193#71182,286
19:46:22.59> $GNGGA,164737.8,5546.89776,N,03742.61804,E,1,20,0.8,138.1,M,14.4,M,,*46
$GNHDT,,*51
#227#6226#187#71182,489
19:46:22.80> $GNGGA,164738.0,5546.89774,N,03742.61759,E,1,20,0.8,138.1,M,14.4,M,,*44
$GNHDT,,*51
#227#6226#187#71182,692
19:46:22.98> $GNGGA,164738.2,5546.89776,N,03742.61717,E,1,20,0.8,138.1,M,14.4,M,,*4E
$GNHDT,,*51
#227#6317#181#71182,895
19:46:23.19> $GNGGA,164738.4,5546.89782,N,03742.61680,E,1,20,0.8,138.2,M,14.4,M,,*4F
$GNHDT,,*51
#227#6317#181#71183,098
19:46:23.39> $GNGGA,164738.6,5546.89789,N,03742.61642,E,1,20,0.8,138.2,M,14.4,M,,*48
$GNHDT,,*51
#227#6317#181#71183,301
19:46:23.59> $GNGGA,164738.8,5546.89801,N,03742.61611,E,1,20,0.8,138.2,M,14.4,M,,*4F
$GNHDT,,*51
#227#6408#181#71183,504
19:46:23.80> $GNGGA,164739.0,5546.89805,N,03742.61571,E,1,20,1.2,138.3,M,14.4,M,,*4D
$GNHDT,,*51
#227#6408#181#71183,708
19:46:24.00> $GNGGA,164739.2,5546.89811,N,03742.61539,E,1,20,1.2,138.4,M,14.4,M,,*41
$GNHDT,,*51
#227#6496#175#71183,911
19:46:24.19> $GNGGA,164739.4,5546.89819,N,03742.61506,E,1,19,1.2,138.4,M,14.4,M,,*49
$GNHDT,,*51
#227#6496#175#71184,114
19:46:24.39> $GNGGA,164739.6,5546.89823,N,03742.61468,E,1,19,1.2,138.4,M,14.4,M,,*4B
$GNHDT,,*51
#227#6496#175#71184,317
19:46:24.59> $GNGGA,164739.8,5546.89827,N,03742.61429,E,1,19,1.2,138.5,M,14.4,M,,*45
$GNHDT,,*51
#227#6584#175#71184,52
19:46:24.80> $GNGGA,164740.0,5546.89833,N,03742.61395,E,1,19,1.2,138.5,M,14.4,M,,*46
$GNHDT,,*51
#227#6584#175#71184,723
19:46:25.00> $GNGGA,164740.2,5546.89837,N,03742.61360,E,1,19,1.2,138.5,M,14.4,M,,*4A
$GNHDT,,*51
#227#6673#177#71184,926
19:46:25.20> $GNGGA,164740.4,5546.89843,N,03742.61324,E,1,19,1.2,138.5,M,14.4,M,,*4F
$GNHDT,,*51
#227#6673#177#71185,129
19:46:25.39> $GNGGA,164740.6,5546.89846,N,03742.61288,E,1,19,1.2,138.5,M,14.4,M,,*4F
$GNHDT,,*51
#227#6673#177#71185,333
19:46:25.61> $GNGGA,164740.8,5546.89847,N,03742.61253,E,1,19,1.2,138.4,M,14.4,M,,*47
$GNHDT,,*51
#227#6763#179#71185,536
19:46:25.80> $GNGGA,164741.0,5546.89848,N,03742.61218,E,1,19,1.2,138.3,M,14.4,M,,*49
$GNHDT,,*51
#227#6763#179#71185,739
19:46:26.00> $GNGGA,164741.2,5546.89851,N,03742.61180,E,1,18,1.2,138.2,M,14.4,M,,*41
$GNHDT,,*51
#227#6854#181#71185,942
19:46:26.20> $GNGGA,164741.4,5546.89858,N,03742.61141,E,1,18,1.2,138.3,M,14.4,M,,*42
$GNHDT,,*51
#227#6854#181#71186,145
19:46:26.39> $GNGGA,164741.6,5546.89861,N,03742.61105,E,1,19,1.2,138.3,M,14.4,M,,*4B
$GNHDT,,*51
#227#6945#181#71186,348
19:46:26.59> $GNGGA,164741.8,5546.89863,N,03742.61069,E,1,19,1.2,138.2,M,14.4,M,,*4D
$GNHDT,,*51
#227#6945#181#71186,551
19:46:26.81> $GNGGA,164742.0,5546.89864,N,03742.61032,E,1,19,1.2,138.2,M,14.4,M,,*4F
$GNHDT,,*51
#227#6945#181#71186,754
19:46:27.00> $GNGGA,164742.2,5546.89865,N,03742.60995,E,1,19,1.2,138.2,M,14.4,M,,*49
$GNHDT,,*51
#227#7038#185#71186,958
19:46:27.20> $GNGGA,164742.4,5546.89864,N,03742.60952,E,1,19,1.2,138.2,M,14.4,M,,*45
$GNHDT,,*51
#227#7038#185#71187,161
19:46:27.39> $GNGGA,164742.6,5546.89863,N,03742.60914,E,1,19,0.8,138.2,M,14.4,M,,*49
$GNHDT,,*51
#227#7130#183#71187,364
19:46:27.59> $GNGGA,164742.8,5546.89859,N,03742.60876,E,1,19,1.2,138.1,M,14.4,M,,*43
$GNHDT,,*51
#227#7130#183#71187,567
19:46:27.80> $GNGGA,164743.0,5546.89856,N,03742.60841,E,1,19,0.8,138.2,M,14.4,M,,*49
$GNHDT,,*51
#227#7130#183#71187,77
19:46:28.00> $GNGGA,164743.2,5546.89852,N,03742.60809,E,1,19,0.8,138.3,M,14.4,M,,*42
$GNHDT,,*51
#227#7225#189#71187,973
19:46:28.20> $GNGGA,164743.4,5546.89842,N,03742.60774,E,1,19,0.8,138.3,M,14.4,M,,*40
$GNHDT,,*51
#227#7225#189#71188,176
19:46:28.39> $GNGGA,164743.6,5546.89827,N,03742.60738,E,1,19,1.2,138.1,M,14.4,M,,*40
$GNHDT,,*51
#227#7325#199#71188,379
19:46:28.59> $GNGGA,164743.8,5546.89816,N,03742.60706,E,1,18,1.4,138.1,M,14.4,M,,*46
$GNHDT,,*51
#227#7325#199#71188,583
19:46:28.80> $GNGGA,164744.0,5546.89801,N,03742.60675,E,1,18,1.4,138.1,M,14.4,M,,*4A
$GNHDT,,*51
#227#7325#199#71188,786
19:46:29.00> $GNGGA,164744.2,5546.89783,N,03742.60647,E,1,18,1.4,138.0,M,14.4,M,,*4D
$GNHDT,,*51
#227#7427#203#71188,989
19:46:29.19> $GNGGA,164744.4,5546.89765,N,03742.60624,E,1,18,1.4,138.0,M,14.4,M,,*46
$GNHDT,,*51
#227#7427#203#71189,192
19:46:29.39> $GNGGA,164744.6,5546.89744,N,03742.60602,E,1,19,1.4,138.0,M,14.4,M,,*42
$GNHDT,,*51
#227#7524#193#71189,395
19:46:29.59> $GNGGA,164744.8,5546.89727,N,03742.60583,E,1,19,0.8,138.0,M,14.4,M,,*4E
$GNHDT,,*51
#227#7524#193#71189,598
19:46:29.80> $GNGGA,164745.0,5546.89709,N,03742.60565,E,1,19,0.8,138.0,M,14.4,M,,*43
$GNHDT,,*51
#227#7524#193#71189,801
19:46:30.00> $GNGGA,164745.2,5546.89690,N,03742.60551,E,1,19,0.8,138.0,M,14.4,M,,*47
$GNHDT,,*51
#227#7524#193#71190,004
19:46:30.19> $GNGGA,164745.4,5546.89668,N,03742.60540,E,1,19,0.8,138.0,M,14.4,M,,*46
$GNHDT,,*51
#227#7620#191#71190,004
19:46:30.39> $GNGGA,164745.6,5546.89648,N,03742.60533,E,1,19,0.8,138.0,M,14.4,M,,*42
$GNHDT,,*51
#227#7620#191#71190,208
19:46:30.59> $GNGGA,164745.8,5546.89629,N,03742.60529,E,1,19,0.8,138.0,M,14.4,M,,*40
$GNHDT,,*51
#227#7710#179#71190,411
19:46:30.80> $GNGGA,164746.0,5546.89610,N,03742.60527,E,1,19,0.8,137.9,M,14.4,M,,*49
$GNHDT,,*51
#227#7710#179#71190,614
19:46:31.00> $GNGGA,164746.2,5546.89588,N,03742.60524,E,1,21,0.8,137.8,M,14.4,M,,*40
$GNHDT,,*51
#227#7710#179#71190,817
19:46:31.20> $GNGGA,164746.4,5546.89571,N,03742.60524,E,1,21,0.8,137.8,M,14.4,M,,*40
$GNHDT,,*51
#227#7787#153#71191,02
19:46:31.39> $GNGGA,164746.6,5546.89559,N,03742.60522,E,1,20,0.8,137.8,M,14.4,M,,*4F
$GNHDT,,*51
#227#7787#153#71191,223
19:46:31.59> $GNGGA,164746.8,5546.89548,N,03742.60520,E,1,20,0.8,137.8,M,14.4,M,,*43
$GNHDT,,*51
#227#7850#125#71191,426
19:46:31.80> $GNGGA,164747.0,5546.89541,N,03742.60520,E,1,20,0.8,137.7,M,14.4,M,,*4C
$GNHDT,,*51
#227#7850#125#71191,629
19:46:32.00> $GNGGA,164747.2,5546.89538,N,03742.60521,E,1,20,0.8,137.7,M,14.4,M,,*41
$GNHDT,,*51
#227#7850#125#71191,833
19:46:32.20> $GNGGA,164747.4,5546.89538,N,03742.60521,E,1,20,1.6,137.7,M,14.4,M,,*48
$GNHDT,,*51
#227#7880#59#71192,036
19:46:32.41> $GNGGA,164747.6,5546.89538,N,03742.60522,E,1,20,1.6,137.7,M,14.4,M,,*49
$GNHDT,,*51
#227#7880#59#71192,239
19:46:32.61> $GNGGA,164747.8,5546.89535,N,03742.60524,E,1,20,1.6,137.7,M,14.4,M,,*4C
$GNHDT,,*51
#227#7880#0#71192,442
19:46:32.81> $GNGGA,164748.0,5546.89533,N,03742.60526,E,1,20,1.3,137.7,M,14.4,M,,*4A
$GNHDT,,*51
#227#7880#0#71192,645
19:46:33.00> $GNGGA,164748.2,5546.89531,N,03742.60528,E,1,20,1.3,137.7,M,14.4,M,,*44
$GNHDT,,*51
#227#7880#0#71192,848
19:46:33.20> $GNGGA,164748.4,5546.89528,N,03742.60530,E,1,20,1.6,137.6,M,14.4,M,,*47
$GNHDT,,*51
#227#7882#3#71193,051
19:46:33.41> $GNGGA,164748.6,5546.89526,N,03742.60532,E,1,20,1.3,137.6,M,14.4,M,,*4C
$GNHDT,,*51
#227#7882#3#71193,254
19:46:33.61> $GNGGA,164748.8,5546.89526,N,03742.60534,E,1,20,1.6,137.6,M,14.4,M,,*41
$GNHDT,,*51
#227#7883#1#71193,458
19:46:33.81> $GNGGA,164749.0,5546.89525,N,03742.60538,E,1,20,1.3,137.6,M,14.4,M,,*42
$GNHDT,,*51
#227#7883#1#71193,661
19:46:34.00> $GNGGA,164749.2,5546.89524,N,03742.60541,E,1,20,1.3,137.5,M,14.4,M,,*4C
$GNHDT,,*51
#227#7886#5#71193,864
19:46:34.20> $GNGGA,164749.4,5546.89524,N,03742.60544,E,1,20,1.3,137.5,M,14.4,M,,*4F
$GNHDT,,*51
#227#7886#5#71194,067
19:46:34.41> $GNGGA,164749.6,5546.89525,N,03742.60546,E,1,20,1.3,137.5,M,14.4,M,,*4E
$GNHDT,,*51
#227#7886#5#71194,27
19:46:34.61> $GNGGA,164749.8,5546.89528,N,03742.60548,E,1,20,1.3,137.5,M,14.4,M,,*43
$GNHDT,,*51
#227#7895#17#71194,473
19:46:34.81> $GNGGA,164750.0,5546.89531,N,03742.60551,E,1,20,1.6,137.4,M,14.4,M,,*47
$GNHDT,,*51
#227#7895#17#71194,676
19:46:35.00> $GNGGA,164750.2,5546.89535,N,03742.60555,E,1,19,1.6,137.4,M,14.4,M,,*4F
$GNHDT,,*51
#227#7914#37#71194,879
19:46:35.20> $GNGGA,164750.4,5546.89541,N,03742.60559,E,1,19,1.4,137.3,M,14.4,M,,*43
$GNHDT,,*51
#227#7914#37#71195,083
19:46:35.41> $GNGGA,164750.6,5546.89547,N,03742.60563,E,1,19,1.4,137.3,M,14.4,M,,*4E
$GNHDT,,*51
#227#7914#37#71195,286
19:46:35.61> $GNGGA,164750.8,5546.89554,N,03742.60568,E,1,19,1.4,137.2,M,14.4,M,,*48
$GNHDT,,*51
#227#7942#55#71195,489
19:46:35.81> $GNGGA,164751.0,5546.89560,N,03742.60573,E,1,19,1.6,137.2,M,14.4,M,,*4E
$GNHDT,,*51
#227#7942#55#71195,692
19:46:36.00> $GNGGA,164751.2,5546.89567,N,03742.60577,E,1,19,1.6,137.2,M,14.4,M,,*4F
$GNHDT,,*51
#227#7979#73#71195,895
19:46:36.20> $GNGGA,164751.4,5546.89577,N,03742.60581,E,1,19,1.6,137.1,M,14.4,M,,*42
$GNHDT,,*51
#227#7979#73#71196,098
19:46:36.41> $GNGGA,164751.6,5546.89586,N,03742.60586,E,1,19,1.6,137.1,M,14.4,M,,*49
$GNHDT,,*51
#227#7979#73#71196,301
19:46:36.61> $GNGGA,164751.8,5546.89596,N,03742.60591,E,1,19,1.6,137.0,M,14.4,M,,*41
$GNHDT,,*51
#227#8022#85#71196,504
19:46:36.81> $GNGGA,164752.0,5546.89608,N,03742.60591,E,1,19,1.6,136.9,M,14.4,M,,*46
$GNHDT,,*51
#227#8022#85#71196,708
19:46:37.00> $GNGGA,164752.2,5546.89623,N,03742.60590,E,1,19,1.6,136.9,M,14.4,M,,*4C
$GNHDT,,*51
#227#8075#105#71196,911
19:46:37.20> $GNGGA,164752.4,5546.89636,N,03742.60586,E,1,19,1.6,136.9,M,14.4,M,,*49
$GNHDT,,*51
#227#8075#105#71197,114
19:46:37.41> $GNGGA,164752.6,5546.89649,N,03742.60579,E,1,19,1.6,136.8,M,14.4,M,,*42
$GNHDT,,*51
#227#8075#105#71197,317
19:46:37.61> $GNGGA,164752.8,5546.89660,N,03742.60572,E,1,19,1.6,136.8,M,14.4,M,,*4C
$GNHDT,,*51
#227#8129#107#71197,52
19:46:37.81> $GNGGA,164753.0,5546.89671,N,03742.60563,E,1,19,0.8,136.7,M,14.4,M,,*45
$GNHDT,,*51
#227#8129#107#71197,723
19:46:38.00> $GNGGA,164753.2,5546.89681,N,03742.60555,E,1,19,0.8,136.7,M,14.4,M,,*4D
$GNHDT,,*51
#227#8179#99#71197,926
19:46:38.20> $GNGGA,164753.4,5546.89693,N,03742.60546,E,1,19,0.8,136.6,M,14.4,M,,*4B
$GNHDT,,*51
#227#8179#99#71198,129
19:46:38.41> $GNGGA,164753.6,5546.89703,N,03742.60537,E,1,19,1.6,136.6,M,14.4,M,,*48
$GNHDT,,*51
#227#8179#99#71198,333
19:46:38.61> $GNGGA,164753.8,5546.89711,N,03742.60528,E,1,19,1.6,136.5,M,14.4,M,,*48
$GNHDT,,*51
#227#8227#95#71198,536
19:46:38.81> $GNGGA,164754.0,5546.89720,N,03742.60519,E,1,18,1.4,136.5,M,14.4,M,,*44
$GNHDT,,*51
#227#8227#95#71198,739
19:46:39.00> $GNGGA,164754.2,5546.89729,N,03742.60507,E,1,18,1.6,136.5,M,14.4,M,,*42
$GNHDT,,*51
#227#8273#91#71198,942
19:46:39.20> $GNGGA,164754.4,5546.89737,N,03742.60497,E,1,18,1.6,136.5,M,14.4,M,,*43
$GNHDT,,*51
#227#8273#91#71199,145
19:46:39.41> $GNGGA,164754.6,5546.89744,N,03742.60488,E,1,18,1.6,136.5,M,14.4,M,,*4B
$GNHDT,,*51
#227#8273#91#71199,348
19:46:39.61> $GNGGA,164754.8,5546.89748,N,03742.60478,E,1,19,1.6,136.5,M,14.4,M,,*47
$GNHDT,,*51
#227#8311#75#71199,551
19:46:39.81> $GNGGA,164755.0,5546.89752,N,03742.60468,E,1,19,1.6,136.5,M,14.4,M,,*44
$GNHDT,,*51
#227#8311#75#71199,754
19:46:40.00> $GNGGA,164755.2,5546.89759,N,03742.60457,E,1,19,1.6,136.5,M,14.4,M,,*41
$GNHDT,,*51
#227#8345#67#71199,958
19:46:40.20> $GNGGA,164755.4,5546.89764,N,03742.60450,E,1,19,1.4,136.5,M,14.4,M,,*4C
$GNHDT,,*51
#227#8345#67#71200,161
19:46:40.41> $GNGGA,164755.6,5546.89768,N,03742.60440,E,1,19,1.6,136.5,M,14.4,M,,*41
$GNHDT,,*51
#227#8345#67#71200,364
19:46:40.61> $GNGGA,164755.8,5546.89774,N,03742.60428,E,1,20,1.6,136.5,M,14.4,M,,*46
$GNHDT,,*51
#227#8377#63#71200,567
19:46:40.81> $GNGGA,164756.0,5546.89780,N,03742.60414,E,1,20,1.6,136.4,M,14.4,M,,*48
$GNHDT,,*51
#227#8377#63#71200,77
19:46:41.00> $GNGGA,164756.2,5546.89787,N,03742.60400,E,1,20,0.8,136.4,M,14.4,M,,*47
$GNHDT,,*51
#227#8418#81#71200,973
19:46:41.20> $GNGGA,164756.4,5546.89794,N,03742.60387,E,1,20,0.8,136.4,M,14.4,M,,*4B
$GNHDT,,*51
#227#8418#81#71201,176
19:46:41.41> $GNGGA,164756.6,5546.89800,N,03742.60374,E,1,20,0.8,136.4,M,14.4,M,,*47
$GNHDT,,*51
#227#8461#85#71201,379
19:46:41.61> $GNGGA,164756.8,5546.89805,N,03742.60362,E,1,20,0.8,136.4,M,14.4,M,,*4B
$GNHDT,,*51
#227#8461#85#71201,583
19:46:41.81> $GNGGA,164757.0,5546.89807,N,03742.60351,E,1,20,0.8,136.4,M,14.4,M,,*40
$GNHDT,,*51
#227#8461#85#71201,786
19:46:42.00> $GNGGA,164757.2,5546.89809,N,03742.60344,E,1,20,0.8,136.4,M,14.4,M,,*48
$GNHDT,,*51
#227#8495#67#71201,989
19:46:42.20> $GNGGA,164757.4,5546.89810,N,03742.60339,E,1,20,0.8,136.4,M,14.4,M,,*4C
$GNHDT,,*51
#227#8495#67#71202,192
19:46:42.41> $GNGGA,164757.6,5546.89809,N,03742.60340,E,1,20,0.8,136.3,M,14.4,M,,*4F
$GNHDT,,*51
#227#8503#15#71202,395
19:46:42.61> $GNGGA,164757.8,5546.89808,N,03742.60341,E,1,20,0.8,136.3,M,14.4,M,,*41
$GNHDT,,*51
#227#8503#15#71202,598
19:46:42.81> $GNGGA,164758.0,5546.89808,N,03742.60341,E,1,20,0.8,136.3,M,14.4,M,,*46
$GNHDT,,*51
#227#8503#15#71202,801
19:46:43.00> $GNGGA,164758.2,5546.89807,N,03742.60340,E,1,20,0.8,136.3,M,14.4,M,,*4A
$GNHDT,,*51
#227#8503#0#71203,004
19:46:43.20> $GNGGA,164758.4,5546.89807,N,03742.60340,E,1,20,0.8,136.3,M,14.4,M,,*4C
$GNHDT,,*51
#227#8503#0#71203,208
19:46:43.41> $GNGGA,164758.6,5546.89806,N,03742.60340,E,1,20,0.8,136.3,M,14.4,M,,*4F
$GNHDT,,*51
#227#8505#3#71203,411
19:46:43.61> $GNGGA,164758.8,5546.89807,N,03742.60340,E,1,20,0.8,136.3,M,14.4,M,,*40
$GNHDT,,*51
#227#8505#3#71203,614
19:46:43.81> $GNGGA,164759.0,5546.89807,N,03742.60340,E,1,20,1.3,136.3,M,14.4,M,,*43
$GNHDT,,*51
#227#8505#3#71203,817
19:46:44.00> $GNGGA,164759.2,5546.89807,N,03742.60339,E,1,20,0.8,136.3,M,14.4,M,,*45
$GNHDT,,*51
#227#8505#3#71203,817
19:46:44.20> $GNGGA,164759.4,5546.89807,N,03742.60339,E,1,20,0.8,136.3,M,14.4,M,,*43
$GNHDT,,*51
#227#8506#1#71204,02
19:46:44.41> $GNGGA,164759.6,5546.89806,N,03742.60342,E,1,20,1.6,136.3,M,14.4,M,,*43
$GNHDT,,*51
#227#8506#1#71204,223
19:46:44.61> $GNGGA,164759.8,5546.89805,N,03742.60346,E,1,20,1.6,136.3,M,14.4,M,,*4A
$GNHDT,,*51
#227#8508#3#71204,426
19:46:44.81> $GNGGA,164800.0,5546.89805,N,03742.60354,E,1,20,0.8,136.2,M,14.4,M,,*4C
$GNHDT,,*51
#227#8508#3#71204,629
19:46:45.00> $GNGGA,164800.2,5546.89804,N,03742.60362,E,1,20,0.8,136.2,M,14.4,M,,*4A
$GNHDT,,*51
#227#8508#3#71204,833
19:46:45.20> $GNGGA,164800.4,5546.89803,N,03742.60373,E,1,20,1.6,136.2,M,14.4,M,,*44
$GNHDT,,*51
#227#8518#19#71205,036
19:46:45.41> $GNGGA,164800.6,5546.89802,N,03742.60385,E,1,20,1.6,136.1,M,14.4,M,,*4D
$GNHDT,,*51
#227#8518#19#71205,239
19:46:45.61> $GNGGA,164800.8,5546.89801,N,03742.60399,E,1,20,0.8,136.1,M,14.4,M,,*42
$GNHDT,,*51
#227#8538#39#71205,442
19:46:45.81> $GNGGA,164801.0,5546.89801,N,03742.60415,E,1,20,0.8,136.1,M,14.4,M,,*48
$GNHDT,,*51
#227#8538#39#71205,645
19:46:46.00> $GNGGA,164801.2,5546.89801,N,03742.60435,E,1,20,0.8,136.1,M,14.4,M,,*48
$GNHDT,,*51
#227#8538#39#71205,848
19:46:46.20> $GNGGA,164801.4,5546.89799,N,03742.60456,E,1,20,0.8,136.0,M,14.4,M,,*44
$GNHDT,,*51
#227#8573#69#71206,051
19:46:46.41> $GNGGA,164801.6,5546.89798,N,03742.60478,E,1,20,0.8,136.0,M,14.4,M,,*4B
$GNHDT,,*51
#227#8573#69#71206,254
19:46:46.61> $GNGGA,164801.8,5546.89796,N,03742.60503,E,1,20,0.8,136.0,M,14.4,M,,*46
$GNHDT,,*51
#227#8623#99#71206,458
19:46:46.81> $GNGGA,164802.0,5546.89793,N,03742.60534,E,1,19,0.8,135.9,M,14.4,M,,*4C
$GNHDT,,*51
#227#8623#99#71206,661
19:46:47.00> $GNGGA,164802.2,5546.89792,N,03742.60570,E,1,19,0.8,135.9,M,14.4,M,,*4F
$GNHDT,,*51
#227#8623#99#71206,864
19:46:47.20> $GNGGA,164802.4,5546.89789,N,03742.60612,E,1,20,0.8,135.9,M,14.4,M,,*4E
$GNHDT,,*51
#227#8697#147#71207,067
19:46:47.41> $GNGGA,164802.6,5546.89787,N,03742.60658,E,1,20,0.8,135.9,M,14.4,M,,*4C
$GNHDT,,*51
#227#8697#147#71207,27
19:46:47.61> $GNGGA,164802.8,5546.89784,N,03742.60711,E,1,19,0.8,135.9,M,14.4,M,,*47
$GNHDT,,*51
#227#8804#213#71207,473
19:46:47.81> $GNGGA,164803.0,5546.89781,N,03742.60771,E,1,20,0.8,135.9,M,14.4,M,,*47
$GNHDT,,*51
#227#8804#213#71207,676
19:46:48.00> $GNGGA,164803.2,5546.89778,N,03742.60834,E,1,20,1.4,135.9,M,14.4,M,,*40
$GNHDT,,*51
#227#8804#213#71207,879
19:46:48.20> $GNGGA,164803.4,5546.89775,N,03742.60903,E,1,20,1.3,135.9,M,14.4,M,,*49
$GNHDT,,*51
#227#8948#287#71208,083
19:46:48.41> $GNGGA,164803.6,5546.89770,N,03742.60980,E,1,21,1.2,135.9,M,14.4,M,,*45
$GNHDT,,*51
#227#8948#287#71208,286
19:46:48.61> $GNGGA,164803.8,5546.89766,N,03742.61068,E,1,21,1.2,135.9,M,14.4,M,,*42
$GNHDT,,*51
#227#9129#361#71208,489
19:46:48.81> $GNGGA,164804.0,5546.89763,N,03742.61156,E,1,20,1.2,135.9,M,14.4,M,,*45
$GNHDT,,*51
#227#9129#361#71208,692
19:46:49.00> $GNGGA,164804.2,5546.89760,N,03742.61239,E,1,21,1.2,135.9,M,14.4,M,,*4F
$GNHDT,,*51
#227#9336#413#71208,895
19:46:49.20> $GNGGA,164804.4,5546.89758,N,03742.61318,E,1,21,1.2,136.0,M,14.4,M,,*4A
$GNHDT,,*51
#227#9336#413#71209,098
19:46:49.41> $GNGGA,164804.6,5546.89753,N,03742.61396,E,1,20,1.2,136.0,M,14.4,M,,*44
$GNHDT,,*51
#227#9336#413#71209,301
19:46:49.59> $GNGGA,164804.8,5546.89747,N,03742.61472,E,1,21,1.2,136.0,M,14.4,M,,*43
$GNHDT,,*51
#227#9532#391#71209,504
19:46:49.81> $GNGGA,164805.0,5546.89739,N,03742.61544,E,1,21,1.2,136.1,M,14.4,M,,*46
$GNHDT,,*51
#227#9532#391#71209,708
19:46:50.00> $GNGGA,164805.2,5546.89733,N,03742.61613,E,1,21,1.2,136.1,M,14.4,M,,*4F
$GNHDT,,*51
#227#9721#377#71209,911
19:46:50.20> $GNGGA,164805.4,5546.89725,N,03742.61687,E,1,21,1.2,136.1,M,14.4,M,,*43
$GNHDT,,*51
#227#9721#377#71210,114
19:46:50.41> $GNGGA,164805.6,5546.89716,N,03742.61766,E,1,21,1.2,136.1,M,14.4,M,,*4F
$GNHDT,,*51
#227#9721#377#71210,317
19:46:50.61> $GNGGA,164805.8,5546.89708,N,03742.61847,E,1,21,1.2,136.2,M,14.4,M,,*41
$GNHDT,,*51
#227#9917#391#71210,52
19:46:51.20> $GNGGA,164806.0,5546.89696,N,03742.61928,E,1,21,1.2,136.2,M,14.4,M,,*44
$GNHDT,,*51
$GNGGA,164806.2,5546.89685,N,03742.62013,E,1,21,1.2,136.2,M,14.4,M,,*46
$GNHDT,,*51
$GNGGA,164806.4,5546.89673,N,03742.62102,E,1,21,1.2,136.2,M,14.4,M,,*48
$GNHDT,,*51
#227#10132#429#71211,129
19:46:51.39> $GNGGA,164806.6,5546.89660,N,03742.62190,E,1,21,1.2,136.1,M,14.4,M,,*40
$GNHDT,,*51
#227#10132#429#71211,333
19:46:51.59> $GNGGA,164806.8,5546.89649,N,03742.62277,E,1,21,1.2,136.1,M,14.4,M,,*4F
$GNHDT,,*51
#227#10359#453#71211,536
19:46:51.80> $GNGGA,164807.0,5546.89639,N,03742.62364,E,1,21,1.2,136.1,M,14.4,M,,*42
$GNHDT,,*51
#227#10359#453#71211,739
19:46:52.00> $GNGGA,164807.2,5546.89634,N,03742.62452,E,1,20,1.2,136.2,M,14.4,M,,*4D
$GNHDT,,*51
#227#10583#447#71211,942
19:46:52.20> $GNGGA,164807.4,5546.89622,N,03742.62537,E,1,20,1.2,136.2,M,14.4,M,,*4E
$GNHDT,,*51
#227#10583#447#71212,145
19:46:52.39> $GNGGA,164807.6,5546.89613,N,03742.62620,E,1,20,1.2,136.2,M,14.4,M,,*4B
$GNHDT,,*51
#227#10583#447#71212,348
19:46:52.59> $GNGGA,164807.8,5546.89599,N,03742.62703,E,1,20,1.2,136.2,M,14.4,M,,*44
$GNHDT,,*51
#227#10802#437#71212,551
19:46:52.80> $GNGGA,164808.0,5546.89588,N,03742.62788,E,1,20,1.2,136.3,M,14.4,M,,*41
$GNHDT,,*51
#227#10802#437#71212,754
19:46:53.00> $GNGGA,164808.2,5546.89578,N,03742.62869,E,1,20,1.2,136.3,M,14.4,M,,*4C
$GNHDT,,*51
#227#11017#429#71212,958
19:46:53.19> $GNGGA,164808.4,5546.89573,N,03742.62948,E,1,20,1.2,136.3,M,14.4,M,,*43
$GNHDT,,*51
#227#11017#429#71213,161
19:46:53.39> $GNGGA,164808.6,5546.89567,N,03742.63023,E,1,20,1.2,136.5,M,14.4,M,,*47
$GNHDT,,*51
#227#11017#429#71213,364
19:46:53.59> $GNGGA,164808.8,5546.89557,N,03742.63097,E,1,20,1.2,136.5,M,14.4,M,,*45
$GNHDT,,*51
#227#11227#419#71213,567
19:46:53.80> $GNGGA,164809.0,5546.89544,N,03742.63170,E,1,20,1.2,136.4,M,14.4,M,,*47
$GNHDT,,*51
#227#11227#419#71213,77
19:46:54.00> $GNGGA,164809.2,5546.89529,N,03742.63242,E,1,21,1.2,136.4,M,14.4,M,,*4D
$GNHDT,,*51
#227#11432#409#71213,973
19:46:54.20> $GNGGA,164809.4,5546.89515,N,03742.63315,E,1,19,1.2,136.4,M,14.4,M,,*4C
$GNHDT,,*51
#227#11432#409#71214,176
19:46:54.39> $GNGGA,164809.6,5546.89503,N,03742.63388,E,1,19,1.2,136.5,M,14.4,M,,*4C
$GNHDT,,*51
#227#11432#409#71214,379
19:46:54.59> $GNGGA,164809.8,5546.89490,N,03742.63456,E,1,19,1.2,136.5,M,14.4,M,,*4D
$GNHDT,,*51
#227#11622#379#71214,583
19:46:54.80> $GNGGA,164810.0,5546.89473,N,03742.63525,E,1,19,1.2,136.5,M,14.4,M,,*45
$GNHDT,,*51
#227#11622#379#71214,786
19:46:55.00> $GNGGA,164810.2,5546.89458,N,03742.63592,E,1,19,1.2,136.5,M,14.4,M,,*42
$GNHDT,,*51
#227#11794#343#71214,989
19:46:55.19> $GNGGA,164810.4,5546.89447,N,03742.63660,E,1,19,1.2,136.6,M,14.4,M,,*47
$GNHDT,,*51
#227#11794#343#71215,192
19:46:55.39> $GNGGA,164810.6,5546.89437,N,03742.63721,E,1,19,1.2,136.6,M,14.4,M,,*46
$GNHDT,,*51
#227#11794#343#71215,395
19:46:55.59> $GNGGA,164810.8,5546.89432,N,03742.63772,E,1,19,1.2,136.7,M,14.4,M,,*4A
$GNHDT,,*51
#227#11948#307#71215,598
19:46:55.80> $GNGGA,164811.0,5546.89422,N,03742.63818,E,1,19,1.2,136.6,M,14.4,M,,*40
$GNHDT,,*51
#227#11948#307#71215,801
19:46:55.98> $GNGGA,164811.2,5546.89413,N,03742.63861,E,1,19,1.2,136.6,M,14.4,M,,*4E
$GNHDT,,*51
#227#11948#307#71215,801
19:46:56.20> $GNGGA,164811.4,5546.89405,N,03742.63899,E,1,18,1.2,136.6,M,14.4,M,,*49
$GNHDT,,*51
#227#12080#263#71216,004
19:46:56.39> $GNGGA,164811.6,5546.89396,N,03742.63937,E,1,18,1.2,136.5,M,14.4,M,,*40
$GNHDT,,*51
#227#12080#263#71216,208
19:46:56.59> $GNGGA,164811.8,5546.89388,N,03742.63974,E,1,18,1.2,136.5,M,14.4,M,,*46
$GNHDT,,*51
#227#12189#217#71216,411
19:46:56.80> $GNGGA,164812.0,5546.89382,N,03742.64007,E,1,19,1.2,136.5,M,14.4,M,,*4C
$GNHDT,,*51
#227#12189#217#71216,614
19:46:57.00> $GNGGA,164812.2,5546.89376,N,03742.64039,E,1,19,1.2,136.5,M,14.4,M,,*48
$GNHDT,,*51
#227#12189#217#71216,817
19:46:57.20> $GNGGA,164812.4,5546.89369,N,03742.64072,E,1,19,1.2,136.4,M,14.4,M,,*4E
$GNHDT,,*51
#227#12283#187#71217,02
19:46:57.39> $GNGGA,164812.6,5546.89360,N,03742.64108,E,1,19,1.2,136.4,M,14.4,M,,*49
$GNHDT,,*51
#227#12283#187#71217,223
19:46:57.59> $GNGGA,164812.8,5546.89351,N,03742.64142,E,1,19,1.2,136.3,M,14.4,M,,*4C
$GNHDT,,*51
#227#12367#167#71217,426
19:46:57.80> $GNGGA,164813.0,5546.89342,N,03742.64175,E,1,19,1.2,136.3,M,14.4,M,,*43
$GNHDT,,*51
#227#12367#167#71217,629
19:46:58.00> $GNGGA,164813.2,5546.89335,N,03742.64211,E,1,19,1.2,136.4,M,14.4,M,,*47
$GNHDT,,*51
#227#12367#167#71217,833
19:46:58.19> $GNGGA,164813.4,5546.89329,N,03742.64246,E,1,19,1.2,136.3,M,14.4,M,,*49
$GNHDT,,*51
#227#12448#161#71218,036
19:46:58.39> $GNGGA,164813.6,5546.89323,N,03742.64281,E,1,19,1.2,136.3,M,14.4,M,,*4A
$GNHDT,,*51
#227#12448#161#71218,239
19:46:58.59> $GNGGA,164813.8,5546.89315,N,03742.64320,E,1,19,1.2,136.3,M,14.4,M,,*4B
$GNHDT,,*51
#227#12535#173#71218,442
19:46:58.80> $GNGGA,164814.0,5546.89307,N,03742.64360,E,1,19,1.2,136.3,M,14.4,M,,*43
$GNHDT,,*51
#227#12535#173#71218,645
19:46:59.00> $GNGGA,164814.2,5546.89301,N,03742.64404,E,1,19,1.2,136.3,M,14.4,M,,*42
$GNHDT,,*51
#227#12535#173#71218,848
19:46:59.20> $GNGGA,164814.4,5546.89291,N,03742.64449,E,1,19,1.2,136.2,M,14.4,M,,*44
$GNHDT,,*51
#227#12635#199#71219,051
19:46:59.41> $GNGGA,164814.6,5546.89284,N,03742.64493,E,1,19,1.2,136.2,M,14.4,M,,*45
$GNHDT,,*51
#227#12635#199#71219,254
19:46:59.61> $GNGGA,164814.8,5546.89275,N,03742.64543,E,1,19,1.2,136.3,M,14.4,M,,*48
$GNHDT,,*51
#227#12752#233#71219,458
19:46:59.81> $GNGGA,164815.0,5546.89267,N,03742.64589,E,1,19,1.2,136.3,M,14.4,M,,*44
$GNHDT,,*51
#227#12752#233#71219,661
19:47:00.00> $GNGGA,164815.2,5546.89260,N,03742.64632,E,1,19,1.2,136.3,M,14.4,M,,*42
$GNHDT,,*51
#227#12752#233#71219,864
19:47:00.20> $GNGGA,164815.4,5546.89253,N,03742.64674,E,1,19,1.2,136.3,M,14.4,M,,*46
$GNHDT,,*51
#227#12873#241#71220,067
19:47:00.41> $GNGGA,164815.6,5546.89245,N,03742.64716,E,1,19,1.2,136.4,M,14.4,M,,*41
$GNHDT,,*51
#227#12873#241#71220,27
19:47:00.61> $GNGGA,164815.8,5546.89237,N,03742.64756,E,1,19,1.2,136.3,M,14.4,M,,*49
$GNHDT,,*51
#227#12987#227#71220,473
19:47:00.81> $GNGGA,164816.0,5546.89230,N,03742.64792,E,1,18,1.2,136.4,M,14.4,M,,*4B
$GNHDT,,*51
#227#12987#227#71220,676
19:47:01.00> $GNGGA,164816.2,5546.89223,N,03742.64833,E,1,20,1.2,136.4,M,14.4,M,,*44
$GNHDT,,*51
#227#12987#227#71220,879
19:47:01.20> $GNGGA,164816.4,5546.89214,N,03742.64873,E,1,20,1.2,136.5,M,14.4,M,,*43
$GNHDT,,*51
#227#13097#219#71221,083
19:47:01.41> $GNGGA,164816.6,5546.89205,N,03742.64912,E,1,21,1.2,136.5,M,14.4,M,,*46
$GNHDT,,*51
#227#13097#219#71221,286
19:47:01.61> $GNGGA,164816.8,5546.89200,N,03742.64949,E,1,21,0.8,136.5,M,14.4,M,,*48
$GNHDT,,*51
#227#13202#209#71221,489
19:47:01.81> $GNGGA,164817.0,5546.89192,N,03742.64985,E,1,21,1.2,136.5,M,14.4,M,,*42
$GNHDT,,*51
#227#13202#209#71221,692
19:47:02.00> $GNGGA,164817.2,5546.89185,N,03742.65017,E,1,21,0.8,136.5,M,14.4,M,,*4E
$GNHDT,,*51
#227#13202#209#71221,895
19:47:02.20> $GNGGA,164817.4,5546.89177,N,03742.65050,E,1,21,1.2,136.5,M,14.4,M,,*4D
$GNHDT,,*51
#227#13297#189#71222,098
19:47:02.41> $GNGGA,164817.6,5546.89170,N,03742.65083,E,1,21,1.2,136.5,M,14.4,M,,*46
$GNHDT,,*51
#227#13297#189#71222,301
19:47:02.61> $GNGGA,164817.8,5546.89161,N,03742.65120,E,1,21,1.2,136.6,M,14.4,M,,*43
$GNHDT,,*51
#227#13386#177#71222,504
19:47:02.81> $GNGGA,164818.0,5546.89154,N,03742.65158,E,1,21,0.8,136.7,M,14.4,M,,*47
$GNHDT,,*51
#227#13386#177#71222,708
19:47:03.00> $GNGGA,164818.2,5546.89147,N,03742.65194,E,1,21,0.8,136.8,M,14.4,M,,*48
$GNHDT,,*51
#227#13386#177#71222,911
19:47:03.20> $GNGGA,164818.4,5546.89135,N,03742.65230,E,1,21,0.8,136.8,M,14.4,M,,*46
$GNHDT,,*51
#227#13472#171#71223,114
19:47:03.41> $GNGGA,164818.6,5546.89126,N,03742.65264,E,1,21,0.8,136.8,M,14.4,M,,*47
$GNHDT,,*51
#227#13472#171#71223,317
19:47:03.59> $GNGGA,164818.8,5546.89120,N,03742.65297,E,1,21,0.8,136.8,M,14.4,M,,*43
$GNHDT,,*51
#227#13558#171#71223,52
19:47:03.81> $GNGGA,164819.0,5546.89115,N,03742.65330,E,1,21,0.8,136.8,M,14.4,M,,*40
$GNHDT,,*51
#227#13558#171#71223,723
19:47:04.00> $GNGGA,164819.2,5546.89111,N,03742.65363,E,1,21,0.8,136.8,M,14.4,M,,*40
$GNHDT,,*51
#227#13643#169#71223,926
19:47:04.20> $GNGGA,164819.4,5546.89106,N,03742.65395,E,1,21,1.2,136.8,M,14.4,M,,*42
$GNHDT,,*51
#227#13643#169#71224,129
19:47:04.41> $GNGGA,164819.6,5546.89102,N,03742.65424,E,1,21,0.8,136.8,M,14.4,M,,*42
$GNHDT,,*51
#227#13643#169#71224,333
19:47:04.61> $GNGGA,164819.8,5546.89100,N,03742.65446,E,1,21,0.8,136.8,M,14.4,M,,*4A
$GNHDT,,*51
#227#13714#141#71224,536
19:47:04.81> $GNGGA,164820.0,5546.89097,N,03742.65464,E,1,21,0.8,136.7,M,14.4,M,,*48
$GNHDT,,*51
#227#13714#141#71224,739
19:47:05.02> $GNGGA,164820.2,5546.89095,N,03742.65482,E,1,21,1.2,136.7,M,14.4,M,,*4B
$GNHDT,,*51
#227#13760#91#71224,942
19:47:05.20> $GNGGA,164820.4,5546.89091,N,03742.65499,E,1,21,1.3,136.8,M,14.4,M,,*4D
$GNHDT,,*51
#227#13760#91#71225,145
19:47:05.41> $GNGGA,164820.6,5546.89088,N,03742.65505,E,1,21,1.2,136.8,M,14.4,M,,*42
$GNHDT,,*51
#227#13760#91#71225,348
19:47:05.61> $GNGGA,164820.8,5546.89086,N,03742.65503,E,1,21,1.3,136.9,M,14.4,M,,*44
$GNHDT,,*51
#227#13776#31#71225,551
19:47:05.81> $GNGGA,164821.0,5546.89084,N,03742.65501,E,1,21,0.8,136.9,M,14.4,M,,*47
$GNHDT,,*51
#227#13776#31#71225,754
19:47:06.00> $GNGGA,164821.2,5546.89083,N,03742.65504,E,1,21,0.8,137.0,M,14.4,M,,*4F
$GNHDT,,*51
#227#13778#3#71225,958
19:47:06.20> $GNGGA,164821.4,5546.89081,N,03742.65507,E,1,21,0.8,137.0,M,14.4,M,,*48
$GNHDT,,*51
#227#13778#3#71226,161
19:47:06.41> $GNGGA,164821.6,5546.89080,N,03742.65509,E,1,21,0.8,137.1,M,14.4,M,,*44
$GNHDT,,*51
#227#13778#3#71226,364
19:47:06.61> $GNGGA,164821.8,5546.89079,N,03742.65510,E,1,21,0.8,137.1,M,14.4,M,,*44
$GNHDT,,*51
#227#13778#0#71226,567
19:47:06.83> $GNGGA,164822.0,5546.89078,N,03742.65511,E,1,21,0.8,137.2,M,14.4,M,,*4C
$GNHDT,,*51
#227#13778#0#71226,77
19:47:07.02> $GNGGA,164822.2,5546.89077,N,03742.65512,E,1,21,0.8,137.3,M,14.4,M,,*43
$GNHDT,,*51
#227#13778#0#71226,973
19:47:07.20> $GNGGA,164822.4,5546.89076,N,03742.65513,E,1,21,0.8,137.3,M,14.4,M,,*45
$GNHDT,,*51
#227#13778#0#71227,176
19:47:07.41> $GNGGA,164822.6,5546.89077,N,03742.65514,E,1,21,0.8,137.3,M,14.4,M,,*41
$GNHDT,,*51
#227#13778#0#71227,379
19:47:07.61> $GNGGA,164822.8,5546.89077,N,03742.65516,E,1,21,0.8,137.4,M,14.4,M,,*4A
$GNHDT,,*51
#227#13778#0#71227,583
19:47:07.81> $GNGGA,164823.0,5546.89078,N,03742.65517,E,1,21,0.8,137.4,M,14.4,M,,*4D
$GNHDT,,*51
#227#13778#0#71227,786
19:47:08.00> $GNGGA,164823.2,5546.89080,N,03742.65516,E,1,21,0.8,137.5,M,14.4,M,,*48
$GNHDT,,*51
#227#13778#0#71227,989
19:47:08.20> $GNGGA,164823.4,5546.89081,N,03742.65518,E,1,20,0.8,137.5,M,14.4,M,,*40
$GNHDT,,*51
#227#13778#0#71228,192
19:47:08.41> $GNGGA,164823.6,5546.89082,N,03742.65520,E,1,20,0.8,137.5,M,14.4,M,,*4A
$GNHDT,,*51
#227#13778#0#71228,395
19:47:08.61> $GNGGA,164823.8,5546.89083,N,03742.65521,E,1,20,0.8,137.6,M,14.4,M,,*47
$GNHDT,,*51
#227#13778#0#71228,598
19:47:08.81> $GNGGA,164824.0,5546.89085,N,03742.65522,E,1,20,0.8,137.6,M,14.4,M,,*4D
$GNHDT,,*51
#227#13778#0#71228,801
19:47:09.02> $GNGGA,164824.2,5546.89087,N,03742.65522,E,1,21,0.8,137.6,M,14.4,M,,*4C
$GNHDT,,*51
#227#13780#3#71229,004
19:47:09.20> $GNGGA,164824.4,5546.89086,N,03742.65521,E,1,21,0.8,137.7,M,14.4,M,,*49
$GNHDT,,*51
#227#13780#3#71229,208
19:47:09.41> $GNGGA,164824.6,5546.89086,N,03742.65521,E,1,21,0.8,137.8,M,14.4,M,,*44
$GNHDT,,*51
#227#13780#3#71229,411
19:47:09.61> $GNGGA,164824.8,5546.89087,N,03742.65522,E,1,21,0.8,137.8,M,14.4,M,,*48
$GNHDT,,*51
#227#13781#1#71229,614
19:47:09.81> $GNGGA,164825.0,5546.89090,N,03742.65526,E,1,21,0.8,137.8,M,14.4,M,,*43
$GNHDT,,*51
#227#13781#1#71229,817
19:47:10.00> $GNGGA,164825.2,5546.89094,N,03742.65530,E,1,21,0.8,137.9,M,14.4,M,,*43
$GNHDT,,*51
#227#13781#1#71229,817
19:47:10.20> $GNGGA,164825.4,5546.89100,N,03742.65535,E,1,21,0.8,138.0,M,14.4,M,,*4A
$GNHDT,,*51
#227#13786#9#71230,02
19:47:10.41> $GNGGA,164825.6,5546.89106,N,03742.65539,E,1,21,0.8,138.1,M,14.4,M,,*43
$GNHDT,,*51
#227#13786#9#71230,223
19:47:10.61> $GNGGA,164825.8,5546.89110,N,03742.65544,E,1,21,0.8,138.3,M,14.4,M,,*42
$GNHDT,,*51
#227#13786#9#71230,426
19:47:10.81> $GNGGA,164826.0,5546.89114,N,03742.65552,E,1,21,0.8,138.3,M,14.4,M,,*4A
$GNHDT,,*51
#227#13795#17#71230,629
19:47:11.02> $GNGGA,164826.2,5546.89118,N,03742.65562,E,1,20,0.8,138.4,M,14.4,M,,*41
$GNHDT,,*51
#227#13795#17#71230,833
19:47:11.20> $GNGGA,164826.4,5546.89123,N,03742.65574,E,1,20,0.8,138.4,M,14.4,M,,*48
$GNHDT,,*51
#227#13815#39#71231,036
19:47:11.41> $GNGGA,164826.6,5546.89124,N,03742.65589,E,1,20,0.8,138.4,M,14.4,M,,*4F
$GNHDT,,*51
#227#13815#39#71231,239
19:47:11.61> $GNGGA,164826.8,5546.89126,N,03742.65607,E,1,20,0.8,138.4,M,14.4,M,,*46
$GNHDT,,*51
#227#13852#73#71231,442
19:47:11.81> $GNGGA,164827.0,5546.89129,N,03742.65629,E,1,20,0.8,138.4,M,14.4,M,,*4C
$GNHDT,,*51
#227#13852#73#71231,645
19:47:12.02> $GNGGA,164827.2,5546.89132,N,03742.65654,E,1,21,0.8,138.4,M,14.4,M,,*4F
$GNHDT,,*51
#227#13852#73#71231,848
19:47:12.20> $GNGGA,164827.4,5546.89135,N,03742.65679,E,1,21,0.8,138.4,M,14.4,M,,*41
$GNHDT,,*51
#227#13907#109#71232,051
19:47:12.41> $GNGGA,164827.6,5546.89141,N,03742.65702,E,1,21,0.8,138.5,M,14.4,M,,*4C
$GNHDT,,*51
#227#13907#109#71232,254
19:47:12.61> $GNGGA,164827.8,5546.89148,N,03742.65728,E,1,21,0.8,138.5,M,14.4,M,,*43
$GNHDT,,*51
#227#13971#127#71232,458
19:47:12.81> $GNGGA,164828.0,5546.89160,N,03742.65753,E,1,21,0.8,138.5,M,14.4,M,,*42
$GNHDT,,*51
#227#13971#127#71232,661
19:47:13.00> $GNGGA,164828.2,5546.89173,N,03742.65780,E,1,21,0.8,138.5,M,14.4,M,,*4C
$GNHDT,,*51
#227#13971#127#71232,864
19:47:13.20> $GNGGA,164828.4,5546.89187,N,03742.65807,E,1,21,0.8,138.5,M,14.4,M,,*41
$GNHDT,,*51
#227#14052#161#71233,067
19:47:13.41> $GNGGA,164828.6,5546.89202,N,03742.65833,E,1,21,0.8,138.5,M,14.4,M,,*4A
$GNHDT,,*51
#227#14052#161#71233,27
19:47:13.61> $GNGGA,164828.8,5546.89218,N,03742.65859,E,1,21,0.8,138.5,M,14.4,M,,*43
$GNHDT,,*51
#227#14138#171#71233,473
19:47:13.81> $GNGGA,164829.0,5546.89238,N,03742.65885,E,1,21,0.8,138.5,M,14.4,M,,*49
$GNHDT,,*51
#227#14138#171#71233,676
19:47:14.00> $GNGGA,164829.2,5546.89256,N,03742.65910,E,1,21,0.8,138.5,M,14.4,M,,*4E
$GNHDT,,*51
#227#14138#171#71233,879
19:47:14.20> $GNGGA,164829.4,5546.89276,N,03742.65930,E,1,21,0.8,138.4,M,14.4,M,,*49
$GNHDT,,*51
#227#14229#181#71234,083
19:47:14.41> $GNGGA,164829.6,5546.89298,N,03742.65951,E,1,21,0.8,138.4,M,14.4,M,,*4C
$GNHDT,,*51
#227#14229#181#71234,286
19:47:14.61> $GNGGA,164829.8,5546.89321,N,03742.65966,E,1,21,0.8,138.5,M,14.4,M,,*44
$GNHDT,,*51
#227#14326#193#71234,489
19:47:14.81> $GNGGA,164830.0,5546.89344,N,03742.65977,E,1,20,0.8,138.4,M,14.4,M,,*47
$GNHDT,,*51
#227#14326#193#71234,692
19:47:15.00> $GNGGA,164830.2,5546.89369,N,03742.65983,E,1,20,0.8,138.4,M,14.4,M,,*41
$GNHDT,,*51
#227#14326#193#71234,895
19:47:15.20> $GNGGA,164830.4,5546.89394,N,03742.65983,E,1,21,0.8,138.4,M,14.4,M,,*44
$GNHDT,,*51
#227#14427#201#71235,098
19:47:15.41> $GNGGA,164830.6,5546.89418,N,03742.65979,E,1,21,0.8,138.4,M,14.4,M,,*40
$GNHDT,,*51
#227#14427#201#71235,301
19:47:15.61> $GNGGA,164830.8,5546.89441,N,03742.65972,E,1,21,0.8,138.4,M,14.4,M,,*49
$GNHDT,,*51
#227#14524#193#71235,504
19:47:15.81> $GNGGA,164831.0,5546.89466,N,03742.65964,E,1,21,0.8,138.5,M,14.4,M,,*43
$GNHDT,,*51
#227#14524#193#71235,708
19:47:16.00> $GNGGA,164831.2,5546.89492,N,03742.65947,E,1,21,0.8,138.5,M,14.4,M,,*4B
$GNHDT,,*51
#227#14524#193#71235,911
19:47:16.20> $GNGGA,164831.4,5546.89515,N,03742.65932,E,1,21,0.8,138.5,M,14.4,M,,*41
$GNHDT,,*51
#227#14619#189#71236,114
19:47:16.41> $GNGGA,164831.6,5546.89537,N,03742.65915,E,1,21,0.8,138.6,M,14.4,M,,*45
$GNHDT,,*51
#227#14619#189#71236,317
19:47:16.61> $GNGGA,164831.8,5546.89557,N,03742.65890,E,1,21,0.8,138.6,M,14.4,M,,*41
$GNHDT,,*51
#227#14714#189#71236,52
19:47:16.83> $GNGGA,164832.0,5546.89565,N,03742.65860,E,1,21,0.8,138.5,M,14.4,M,,*47
$GNHDT,,*51
#227#14714#189#71236,723
19:47:17.02> $GNGGA,164832.2,5546.89574,N,03742.65830,E,1,21,0.8,138.4,M,14.4,M,,*41
$GNHDT,,*51
#227#14714#189#71236,926
19:47:17.20> $GNGGA,164832.4,5546.89584,N,03742.65802,E,1,21,0.8,138.3,M,14.4,M,,*4E
$GNHDT,,*51
#227#14809#189#71237,129
19:47:17.41> $GNGGA,164832.6,5546.89591,N,03742.65765,E,1,21,0.8,138.2,M,14.4,M,,*47
$GNHDT,,*51
#227#14809#189#71237,333
19:47:17.61> $GNGGA,164832.8,5546.89596,N,03742.65721,E,1,21,0.8,138.1,M,14.4,M,,*4D
$GNHDT,,*51
#227#14906#193#71237,536
19:47:17.81> $GNGGA,164833.0,5546.89600,N,03742.65675,E,1,21,0.8,138.0,M,14.4,M,,*49
$GNHDT,,*51
#227#14906#193#71237,739
19:47:18.02> $GNGGA,164833.2,5546.89603,N,03742.65629,E,1,21,0.8,137.9,M,14.4,M,,*47
$GNHDT,,*51
#227#14906#193#71237,942
19:47:18.20> $GNGGA,164833.4,5546.89603,N,03742.65580,E,1,20,0.8,137.9,M,14.4,M,,*40
$GNHDT,,*51
#227#15014#215#71238,145
19:47:18.41> $GNGGA,164833.6,5546.89603,N,03742.65527,E,1,20,0.8,137.8,M,14.4,M,,*4E
$GNHDT,,*51
#227#15014#215#71238,348
19:47:18.61> $GNGGA,164833.8,5546.89602,N,03742.65473,E,1,20,0.8,137.8,M,14.4,M,,*41
$GNHDT,,*51
#227#15137#245#71238,551
19:47:18.81> $GNGGA,164834.0,5546.89596,N,03742.65417,E,1,20,0.8,137.6,M,14.4,M,,*4C
$GNHDT,,*51
#227#15137#245#71238,754
19:47:19.00> $GNGGA,164834.2,5546.89589,N,03742.65357,E,1,21,0.7,137.5,M,14.4,M,,*4E
$GNHDT,,*51
#227#15137#245#71238,958
19:47:19.20> $GNGGA,164834.4,5546.89578,N,03742.65298,E,1,21,0.7,137.5,M,14.4,M,,*44
$GNHDT,,*51
#227#15274#273#71239,161
19:47:19.41> $GNGGA,164834.6,5546.89569,N,03742.65239,E,1,21,0.7,137.4,M,14.4,M,,*4C
$GNHDT,,*51
#227#15274#273#71239,364
19:47:19.61> $GNGGA,164834.8,5546.89561,N,03742.65178,E,1,21,0.7,137.3,M,14.4,M,,*4B
$GNHDT,,*51
#227#15423#297#71239,567
19:47:19.81> $GNGGA,164835.0,5546.89553,N,03742.65115,E,1,21,0.7,137.2,M,14.4,M,,*49
$GNHDT,,*51
#227#15423#297#71239,77
19:47:20.00> $GNGGA,164835.2,5546.89546,N,03742.65052,E,1,21,0.7,137.2,M,14.4,M,,*4D
$GNHDT,,*51
#227#15582#317#71239,973
19:47:20.20> $GNGGA,164835.4,5546.89542,N,03742.64987,E,1,21,0.7,137.1,M,14.4,M,,*4C
$GNHDT,,*51
#227#15582#317#71240,176
19:47:20.41> $GNGGA,164835.6,5546.89538,N,03742.64921,E,1,21,0.7,137.0,M,14.4,M,,*4E
$GNHDT,,*51
#227#15582#317#71240,379
19:47:20.59> $GNGGA,164835.8,5546.89534,N,03742.64853,E,1,21,0.7,137.0,M,14.4,M,,*48
$GNHDT,,*51
#227#15748#331#71240,583
19:47:20.81> $GNGGA,164836.0,5546.89529,N,03742.64784,E,1,21,0.7,136.9,M,14.4,M,,*42
$GNHDT,,*51
#227#15748#331#71240,786
19:47:21.00> $GNGGA,164836.2,5546.89526,N,03742.64715,E,1,21,0.7,136.9,M,14.4,M,,*47
$GNHDT,,*51
#227#15919#341#71240,989
19:47:21.20> $GNGGA,164836.4,5546.89523,N,03742.64645,E,1,21,0.7,136.8,M,14.4,M,,*41
$GNHDT,,*51
#227#15919#341#71241,192
19:47:21.41> $GNGGA,164836.6,5546.89518,N,03742.64582,E,1,20,0.7,136.8,M,14.4,M,,*42
$GNHDT,,*51
#227#15919#341#71241,395
19:47:21.59> $GNGGA,164836.8,5546.89517,N,03742.64518,E,1,20,0.7,136.7,M,14.4,M,,*4F
$GNHDT,,*51
#227#16082#325#71241,598
19:47:21.81> $GNGGA,164837.0,5546.89515,N,03742.64459,E,1,21,0.7,136.7,M,14.4,M,,*41
$GNHDT,,*51
#227#16082#325#71241,801
19:47:22.00> $GNGGA,164837.2,5546.89510,N,03742.64403,E,1,21,0.7,136.7,M,14.4,M,,*49
$GNHDT,,*51
#227#16236#307#71242,004
19:47:22.20> $GNGGA,164837.4,5546.89505,N,03742.64343,E,1,21,0.7,136.7,M,14.4,M,,*48
$GNHDT,,*51
#227#16236#307#71242,208
19:47:22.41> $GNGGA,164837.6,5546.89503,N,03742.64281,E,1,21,0.7,136.6,M,14.4,M,,*42
$GNHDT,,*51
#227#16236#307#71242,411
19:47:22.61> $GNGGA,164837.8,5546.89500,N,03742.64216,E,1,21,0.7,136.6,M,14.4,M,,*41
$GNHDT,,*51
#227#16236#307#71242,411
19:47:22.81> $GNGGA,164838.0,5546.89495,N,03742.64149,E,1,21,0.7,136.6,M,14.4,M,,*42
$GNHDT,,*51
#227#16396#319#71242,817
19:47:23.00> $GNGGA,164838.2,5546.89491,N,03742.64080,E,1,21,0.7,136.6,M,14.4,M,,*40
$GNHDT,,*51
#227#16396#319#71242,817
19:47:23.20> $GNGGA,164838.4,5546.89490,N,03742.64012,E,1,21,0.7,136.6,M,14.4,M,,*4C
$GNHDT,,*51
#227#16562#331#71243,02
19:47:23.41> $GNGGA,164838.6,5546.89489,N,03742.63942,E,1,21,0.7,136.5,M,14.4,M,,*4E
$GNHDT,,*51
#227#16562#331#71243,223
19:47:23.61> $GNGGA,164838.8,5546.89491,N,03742.63871,E,1,21,0.7,136.5,M,14.4,M,,*48
$GNHDT,,*51
#227#16562#331#71243,426
19:47:23.81> $GNGGA,164839.0,5546.89493,N,03742.63801,E,1,21,0.7,136.5,M,14.4,M,,*44
$GNHDT,,*51
#227#16735#345#71243,629
19:47:24.00> $GNGGA,164839.2,5546.89495,N,03742.63731,E,1,21,0.7,136.5,M,14.4,M,,*4C
$GNHDT,,*51
#227#16735#345#71243,833
19:47:24.20> $GNGGA,164839.4,5546.89499,N,03742.63657,E,1,21,0.7,136.5,M,14.4,M,,*47
$GNHDT,,*51
#227#16917#363#71244,036
19:47:24.41> $GNGGA,164839.6,5546.89505,N,03742.63580,E,1,21,0.7,136.5,M,14.4,M,,*48
$GNHDT,,*51
#227#16917#363#71244,239
19:47:24.61> $GNGGA,164839.8,5546.89511,N,03742.63504,E,1,21,0.7,136.6,M,14.4,M,,*4C
$GNHDT,,*51
#227#16917#363#71244,442
19:47:24.81> $GNGGA,164840.0,5546.89514,N,03742.63439,E,1,21,0.7,136.6,M,14.4,M,,*40
$GNHDT,,*51
#227#17105#375#71244,645
19:47:25.00> $GNGGA,164840.2,5546.89513,N,03742.63376,E,1,22,0.7,136.6,M,14.4,M,,*4A
$GNHDT,,*51
#227#17105#375#71244,848
19:47:25.20> $GNGGA,164840.4,5546.89517,N,03742.63306,E,1,22,0.7,136.6,M,14.4,M,,*4F
$GNHDT,,*51
#227#17289#367#71245,051
19:47:25.41> $GNGGA,164840.6,5546.89521,N,03742.63240,E,1,22,0.7,136.6,M,14.4,M,,*4B
$GNHDT,,*51
#227#17289#367#71245,254
19:47:25.61> $GNGGA,164840.8,5546.89524,N,03742.63172,E,1,21,0.7,136.6,M,14.4,M,,*41
$GNHDT,,*51
#227#17289#367#71245,458
19:47:25.81> $GNGGA,164841.0,5546.89528,N,03742.63102,E,1,21,0.7,136.5,M,14.4,M,,*40
$GNHDT,,*51
#227#17464#349#71245,661
19:47:26.00> $GNGGA,164841.2,5546.89539,N,03742.63030,E,1,22,0.7,136.5,M,14.4,M,,*41
$GNHDT,,*51
#227#17464#349#71245,864
19:47:26.20> $GNGGA,164841.4,5546.89553,N,03742.62961,E,1,22,0.7,136.6,M,14.4,M,,*44
$GNHDT,,*51
#227#17636#343#71246,067
19:47:26.41> $GNGGA,164841.6,5546.89560,N,03742.62893,E,1,22,0.7,136.5,M,14.4,M,,*49
$GNHDT,,*51
#227#17636#343#71246,27
