19:34:13.19> $GNGGA,163339.00,5546.89632337,N,03742.67135537,E,1,21,1.2,138.016,M,14.362,M,,*76
$GNHDT,281.003,T*23
####
19:34:13.38> $GNGGA,163339.20,5546.89631655,N,03742.67135513,E,1,21,1.2,138.002,M,14.362,M,,*75
$GNHDT,280.774,T*25
####
19:34:13.58> $GNGGA,163339.40,5546.89631115,N,03742.67135557,E,1,21,1.2,137.993,M,14.362,M,,*7E
$GNHDT,280.873,T*2D
####
19:34:13.78> $GNGGA,163339.60,5546.89630563,N,03742.67135440,E,1,21,1.2,137.978,M,14.362,M,,*7A
$GNHDT,280.976,T*29
####
19:34:13.98> $GNGGA,163339.80,5546.89630304,N,03742.67135558,E,1,21,1.2,137.969,M,14.362,M,,*7B
$GNHDT,280.882,T*23
####
19:34:14.18> $GNGGA,163340.00,5546.89629733,N,03742.67135613,E,1,21,1.2,137.954,M,14.362,M,,*77
$GNHDT,280.868,T*27
####
19:34:14.38> $GNGGA,163340.20,5546.89628899,N,03742.67135527,E,1,21,1.2,137.928,M,14.362,M,,*74
$GNHDT,280.751,T*22
####
19:34:14.58> $GNGGA,163340.40,5546.89628429,N,03742.67135271,E,1,21,1.2,137.912,M,14.362,M,,*78
$GNHDT,280.784,T*2A
####
19:34:14.78> $GNGGA,163340.60,5546.89628039,N,03742.67134314,E,1,21,1.2,137.898,M,14.362,M,,*7F
$GNHDT,280.621,T*24
####
19:34:14.98> $GNGGA,163340.80,5546.89627888,N,03742.67132588,E,1,21,1.2,137.881,M,14.362,M,,*71
$GNHDT,280.827,T*2C
####
19:34:15.19> $GNGGA,163341.00,5546.89627747,N,03742.67129424,E,1,21,1.2,137.865,M,14.362,M,,*73
$GNHDT,280.865,T*2A
####
19:34:15.38> $GNGGA,163341.20,5546.89627066,N,03742.67123545,E,1,21,1.2,137.851,M,14.362,M,,*7E
$GNHDT,281.028,T*2A
####
19:34:15.58> $GNGGA,163341.40,5546.89626552,N,03742.67116596,E,1,21,1.2,137.830,M,14.362,M,,*74
$GNHDT,280.918,T*21
####
19:34:15.78> $GNGGA,163341.60,5546.89626617,N,03742.67107004,E,1,21,0.8,137.815,M,14.362,M,,*76
$GNHDT,280.572,T*21
####
19:34:15.98> $GNGGA,163341.80,5546.89627212,N,03742.67094513,E,1,21,0.8,137.814,M,14.362,M,,*71
$GNHDT,280.697,T*29
####
19:34:16.20> $GNGGA,163342.00,5546.89628263,N,03742.67079688,E,1,21,0.8,137.802,M,14.362,M,,*76
$GNHDT,280.804,T*2D
####
19:34:16.38> $GNGGA,163342.20,5546.89628961,N,03742.67063310,E,1,21,0.8,137.776,M,14.362,M,,*7E
$GNHDT,281.036,T*25
####
19:34:16.58> $GNGGA,163342.40,5546.89630541,N,03742.67045881,E,1,21,0.8,137.762,M,14.362,M,,*7D
$GNHDT,279.787,T*2F
####
19:34:16.78> $GNGGA,163342.60,5546.89632300,N,03742.67025251,E,1,21,0.8,137.736,M,14.362,M,,*7E
$GNHDT,279.878,T*20
####
19:34:16.98> $GNGGA,163342.80,5546.89633713,N,03742.67001558,E,1,21,0.8,137.715,M,14.362,M,,*7E
$GNHDT,280.063,T*24
####
19:34:17.19> $GNGGA,163343.00,5546.89635362,N,03742.66977027,E,1,21,0.6,137.713,M,14.362,M,,*7F
$GNHDT,279.957,T*2C
####
19:34:17.38> $GNGGA,163343.20,5546.89636153,N,03742.66950657,E,1,21,0.6,137.681,M,14.362,M,,*70
$GNHDT,279.347,T*27
####
19:34:17.58> $GNGGA,163343.40,5546.89637450,N,03742.66922700,E,1,20,0.8,137.660,M,14.362,M,,*77
$GNHDT,279.243,T*22
####
19:34:17.78> $GNGGA,163343.60,5546.89639662,N,03742.66892853,E,1,20,0.8,137.663,M,14.362,M,,*78
$GNHDT,278.715,T*25
####
19:34:17.98> $GNGGA,163343.80,5546.89640043,N,03742.66861637,E,1,20,0.8,137.636,M,14.362,M,,*7D
$GNHDT,278.288,T*24
####
19:34:18.19> $GNGGA,163344.00,5546.89640562,N,03742.66830240,E,1,20,0.8,137.613,M,14.362,M,,*73
$GNHDT,277.840,T*25
####
19:34:18.38> $GNGGA,163344.20,5546.89642088,N,03742.66797163,E,1,20,0.8,137.582,M,14.362,M,,*79
$GNHDT,276.958,T*2C
####
19:34:18.58> $GNGGA,163344.40,5546.89643156,N,03742.66761845,E,1,20,0.8,137.541,M,14.362,M,,*77
$GNHDT,276.105,T*2C
####
19:34:18.78> $GNGGA,163344.60,5546.89645025,N,03742.66726456,E,1,20,0.8,137.539,M,14.362,M,,*74
$GNHDT,276.701,T*2E
####
19:34:18.98> $GNGGA,163344.80,5546.89647375,N,03742.66690248,E,1,20,0.8,137.546,M,14.362,M,,*73
$GNHDT,276.173,T*2D
####
19:34:19.19> $GNGGA,163345.00,5546.89648443,N,03742.66651913,E,1,20,1.2,137.531,M,14.362,M,,*74
$GNHDT,276.260,T*2C
####
19:34:19.38> $GNGGA,163345.20,5546.89649458,N,03742.66613393,E,1,20,1.2,137.499,M,14.362,M,,*7A
$GNHDT,275.606,T*2B
####
19:34:19.58> $GNGGA,163345.40,5546.89651612,N,03742.66575983,E,1,20,1.2,137.489,M,14.362,M,,*70
$GNHDT,275.995,T*2E
####
19:34:19.78> $GNGGA,163345.60,5546.89653592,N,03742.66538852,E,1,20,1.2,137.488,M,14.362,M,,*7E
$GNHDT,275.251,T*2D
####
19:34:19.98> $GNGGA,163345.80,5546.89655374,N,03742.66501803,E,1,20,1.2,137.456,M,14.362,M,,*75
$GNHDT,276.184,T*25
####
19:34:20.18> $GNGGA,163346.00,5546.89657312,N,03742.66464948,E,1,20,1.2,137.433,M,14.362,M,,*73
$GNHDT,276.010,T*29
####
19:34:20.38> $GNGGA,163346.20,5546.89658650,N,03742.66429600,E,1,20,1.2,137.410,M,14.362,M,,*76
$GNHDT,275.549,T*23
####
19:34:20.58> $GNGGA,163346.40,5546.89660301,N,03742.66396011,E,1,20,1.2,137.379,M,14.362,M,,*77
$GNHDT,276.376,T*2A
####
19:34:20.78> $GNGGA,163346.60,5546.89661760,N,03742.66364418,E,1,20,1.2,137.353,M,14.362,M,,*7F
$GNHDT,277.583,T*27
####
19:34:20.97> $GNGGA,163346.80,5546.89663456,N,03742.66336956,E,1,20,1.2,137.331,M,14.362,M,,*71
$GNHDT,277.158,T*25
####
19:34:21.19> $GNGGA,163347.00,5546.89665481,N,03742.66313536,E,1,20,1.2,137.320,M,14.362,M,,*79
$GNHDT,277.414,T*28
####
19:34:21.38> $GNGGA,163347.20,5546.89666711,N,03742.66290999,E,1,20,1.2,137.298,M,14.362,M,,*73
$GNHDT,278.633,T*20
####
19:34:21.58> $GNGGA,163347.40,5546.89668256,N,03742.66267751,E,1,20,1.2,137.285,M,14.362,M,,*73
$GNHDT,277.629,T*24
####
19:34:21.78> $GNGGA,163347.60,5546.89669004,N,03742.66244270,E,1,20,1.2,137.257,M,14.362,M,,*7D
$GNHDT,278.325,T*22
####
19:34:21.98> $GNGGA,163347.80,5546.89668935,N,03742.66219387,E,1,20,1.2,137.208,M,14.362,M,,*72
$GNHDT,278.524,T*25
####
19:34:22.19> $GNGGA,163348.00,5546.89670512,N,03742.66194605,E,1,20,1.2,137.198,M,14.362,M,,*76
$GNHDT,277.978,T*2F
####
19:34:22.38> $GNGGA,163348.20,5546.89674185,N,03742.66171198,E,1,20,0.8,137.213,M,14.362,M,,*79
$GNHDT,277.868,T*2F
####
19:34:22.58> $GNGGA,163348.40,5546.89676532,N,03742.66147719,E,1,20,0.8,137.203,M,14.362,M,,*7E
$GNHDT,277.539,T*26
####
19:34:22.78> $GNGGA,163348.60,5546.89677431,N,03742.66123531,E,1,20,0.8,137.183,M,14.362,M,,*7E
$GNHDT,276.522,T*2D
####
19:34:22.98> $GNGGA,163348.80,5546.89680004,N,03742.66099674,E,1,20,0.8,137.190,M,14.362,M,,*7A
$GNHDT,277.173,T*2C
####
19:34:23.19> $GNGGA,163349.00,5546.89681482,N,03742.66075784,E,1,20,0.8,137.191,M,14.362,M,,*75
$GNHDT,276.738,T*24
####
19:34:23.38> $GNGGA,163349.20,5546.89681402,N,03742.66051415,E,1,20,0.8,137.194,M,14.362,M,,*77
$GNHDT,276.490,T*25
####
19:34:23.58> $GNGGA,163349.40,5546.89681796,N,03742.66027360,E,1,20,0.8,137.199,M,14.362,M,,*76
$GNHDT,276.292,T*21
####
19:34:23.78> $GNGGA,163349.60,5546.89688538,N,03742.66004520,E,1,20,0.8,137.261,M,14.362,M,,*7C
$GNHDT,276.232,T*2B
####
19:34:23.98> $GNGGA,163349.80,5546.89692693,N,03742.65981448,E,1,20,0.8,137.308,M,14.362,M,,*7D
$GNHDT,275.017,T*2D
####
19:34:24.19> $GNGGA,163350.00,5546.89694808,N,03742.65958106,E,1,20,0.8,137.337,M,14.362,M,,*70
$GNHDT,274.219,T*20
####
19:34:24.38> $GNGGA,163350.20,5546.89694521,N,03742.65935253,E,1,20,0.8,137.338,M,14.362,M,,*73
$GNHDT,274.003,T*29
####
19:34:24.58> $GNGGA,163350.40,5546.89692534,N,03742.65913087,E,1,20,0.8,137.356,M,14.362,M,,*70
$GNHDT,274.119,T*23
####
19:34:24.78> $GNGGA,163350.60,5546.89692187,N,03742.65893269,E,1,20,0.8,137.375,M,14.362,M,,*74
$GNHDT,273.203,T*2C
####
19:34:24.98> $GNGGA,163350.80,5546.89692828,N,03742.65872724,E,1,20,0.8,137.380,M,14.362,M,,*7F
$GNHDT,272.695,T*26
####
19:34:25.19> $GNGGA,163351.00,5546.89691529,N,03742.65849260,E,1,20,0.8,137.361,M,14.362,M,,*7B
$GNHDT,271.054,T*2E
####
19:34:25.38> $GNGGA,163351.20,5546.89689244,N,03742.65824214,E,1,20,0.8,137.351,M,14.362,M,,*77
$GNHDT,268.718,T*29
####
19:34:25.58> $GNGGA,163351.40,5546.89688161,N,03742.65799432,E,1,20,0.8,137.374,M,14.362,M,,*78
$GNHDT,267.342,T*2D
####
19:34:25.78> $GNGGA,163351.60,5546.89686374,N,03742.65773652,E,1,20,0.8,137.394,M,14.362,M,,*7C
$GNHDT,266.678,T*20
####
19:34:25.98> $GNGGA,163351.80,5546.89684097,N,03742.65747918,E,1,20,0.8,137.390,M,14.362,M,,*7C
$GNHDT,265.037,T*2E
####
19:34:26.20> $GNGGA,163352.00,5546.89681152,N,03742.65720871,E,1,20,0.8,137.383,M,14.362,M,,*77
$GNHDT,265.306,T*2F
####
19:34:26.38> $GNGGA,163352.20,5546.89676188,N,03742.65691831,E,1,20,0.8,137.378,M,14.362,M,,*71
$GNHDT,265.306,T*2F
####
19:34:26.58> $GNGGA,163352.40,5546.89670416,N,03742.65662284,E,1,20,0.8,137.383,M,14.362,M,,*7F
$GNHDT,264.516,T*29
####
19:34:26.78> $GNGGA,163352.60,5546.89665268,N,03742.65631900,E,1,20,0.8,137.389,M,14.362,M,,*7D
$GNHDT,262.994,T*29
####
19:34:26.98> $GNGGA,163352.80,5546.89661944,N,03742.65601727,E,1,20,0.8,137.396,M,14.362,M,,*74
$GNHDT,263.066,T*2C
####
19:34:27.19> $GNGGA,163353.00,5546.89658073,N,03742.65571463,E,1,20,0.8,137.387,M,14.362,M,,*7D
$GNHDT,262.196,T*23
####
19:34:27.38> $GNGGA,163353.20,5546.89652615,N,03742.65540869,E,1,20,0.8,137.358,M,14.362,M,,*75
$GNHDT,259.249,T*2A
####
19:34:27.58> $GNGGA,163353.40,5546.89646380,N,03742.65509262,E,1,20,0.8,137.349,M,14.362,M,,*73
$GNHDT,259.879,T*23
####
19:34:27.78> $GNGGA,163353.60,5546.89640899,N,03742.65477494,E,1,20,0.8,137.346,M,14.362,M,,*7C
$GNHDT,258.235,T*20
####
19:34:27.98> $GNGGA,163353.80,5546.89635305,N,03742.65447514,E,1,20,0.8,137.335,M,14.362,M,,*70
$GNHDT,257.412,T*2C
####
19:34:28.19> $GNGGA,163354.00,5546.89628904,N,03742.65418315,E,1,20,0.8,137.333,M,14.362,M,,*73
$GNHDT,257.360,T*2E
####
19:34:28.37> $GNGGA,163354.20,5546.89623498,N,03742.65385309,E,1,20,0.8,137.302,M,14.362,M,,*7E
$GNHDT,257.030,T*28
####
19:34:28.58> $GNGGA,163354.40,5546.89618469,N,03742.65352268,E,1,20,0.8,137.265,M,14.362,M,,*72
$GNHDT,256.229,T*23
####
19:34:28.78> $GNGGA,163354.60,5546.89611048,N,03742.65320096,E,1,20,0.8,137.252,M,14.362,M,,*7C
$GNHDT,255.495,T*21
####
19:34:28.98> $GNGGA,163354.80,5546.89603217,N,03742.65285548,E,1,20,0.8,137.228,M,14.362,M,,*7C
$GNHDT,255.083,T*22
####
19:34:29.19> $GNGGA,163355.00,5546.89595606,N,03742.65250177,E,1,20,0.8,137.179,M,14.362,M,,*7A
$GNHDT,255.313,T*28
####
19:34:29.38> $GNGGA,163355.20,5546.89587712,N,03742.65215257,E,1,20,0.8,137.160,M,14.362,M,,*77
$GNHDT,252.279,T*22
####
19:34:29.57> $GNGGA,163355.40,5546.89579968,N,03742.65179595,E,1,20,0.8,137.152,M,14.362,M,,*72
$GNHDT,252.748,T*25
####
19:34:29.78> $GNGGA,163355.60,5546.89573370,N,03742.65144642,E,1,20,0.8,137.121,M,14.362,M,,*7A
$GNHDT,252.275,T*2E
####
19:34:29.98> $GNGGA,163355.80,5546.89567405,N,03742.65110371,E,1,20,0.8,137.110,M,14.362,M,,*72
$GNHDT,251.902,T*26
####
19:34:30.18> $GNGGA,163356.00,5546.89560189,N,03742.65075980,E,1,20,0.8,137.092,M,14.362,M,,*72
$GNHDT,252.588,T*2B
####
19:34:30.38> $GNGGA,163356.20,5546.89550601,N,03742.65044084,E,1,20,0.8,137.067,M,14.362,M,,*71
$GNHDT,253.327,T*29
####
19:34:30.58> $GNGGA,163356.40,5546.89540736,N,03742.65011490,E,1,20,0.8,137.040,M,14.362,M,,*77
$GNHDT,253.249,T*20
####
19:34:30.77> $GNGGA,163356.60,5546.89531430,N,03742.64978486,E,1,20,0.8,137.037,M,14.362,M,,*76
$GNHDT,253.043,T*28
####
19:34:30.98> $GNGGA,163356.80,5546.89525319,N,03742.64945628,E,1,20,0.8,137.065,M,14.362,M,,*7E
$GNHDT,253.517,T*2C
####
19:34:31.18> $GNGGA,163357.00,5546.89518192,N,03742.64914269,E,1,20,0.8,137.099,M,14.362,M,,*7E
$GNHDT,253.874,T*24
####
19:34:31.38> $GNGGA,163357.20,5546.89511442,N,03742.64880440,E,1,20,0.8,137.103,M,14.362,M,,*7E
$GNHDT,253.388,T*2C
####
19:34:31.58> $GNGGA,163357.40,5546.89505349,N,03742.64848176,E,1,19,0.8,137.096,M,14.362,M,,*72
$GNHDT,253.870,T*20
####
19:34:31.78> $GNGGA,163357.60,5546.89500987,N,03742.64815789,E,1,19,0.8,137.110,M,14.362,M,,*7C
$GNHDT,255.757,T*2C
####
19:34:31.97> $GNGGA,163357.80,5546.89497090,N,03742.64783757,E,1,19,0.8,137.095,M,14.362,M,,*7D
$GNHDT,255.233,T*2B
####
19:34:32.18> $GNGGA,163358.00,5546.89493568,N,03742.64751275,E,1,19,0.8,137.068,M,14.362,M,,*74
$GNHDT,256.350,T*2C
####
19:34:32.38> $GNGGA,163358.20,5546.89491524,N,03742.64719205,E,1,19,0.8,137.068,M,14.362,M,,*77
$GNHDT,255.800,T*21
####
19:34:32.58> $GNGGA,163358.40,5546.89490726,N,03742.64686079,E,1,19,0.8,137.074,M,14.362,M,,*73
$GNHDT,257.665,T*2E
####
19:34:32.77> $GNGGA,163358.60,5546.89488533,N,03742.64652624,E,1,19,0.8,137.044,M,14.362,M,,*7A
$GNHDT,258.065,T*27
####
19:34:32.97> $GNGGA,163358.80,5546.89484799,N,03742.64620689,E,1,19,0.8,137.056,M,14.362,M,,*7B
$GNHDT,257.743,T*2B
####
19:34:33.18> $GNGGA,163359.00,5546.89481142,N,03742.64588452,E,1,19,0.8,137.052,M,14.362,M,,*76
$GNHDT,259.510,T*21
####
19:34:33.38> $GNGGA,163359.20,5546.89480397,N,03742.64555173,E,1,19,0.8,137.061,M,14.362,M,,*79
$GNHDT,260.819,T*2F
####
19:34:33.58> $GNGGA,163359.40,5546.89478809,N,03742.64521338,E,1,19,0.8,137.056,M,14.362,M,,*7E
$GNHDT,261.061,T*29
####
19:34:33.77> $GNGGA,163359.60,5546.89474763,N,03742.64486708,E,1,19,0.8,137.018,M,14.362,M,,*72
$GNHDT,262.028,T*27
####
19:34:33.98> $GNGGA,163359.80,5546.89472124,N,03742.64451224,E,1,19,0.8,136.991,M,14.362,M,,*77
$GNHDT,261.078,T*21
####
19:34:34.18> $GNGGA,163400.00,5546.89472223,N,03742.64415987,E,1,19,0.8,137.010,M,14.362,M,,*73
$GNHDT,261.602,T*2A
####
19:34:34.38> $GNGGA,163400.20,5546.89471344,N,03742.64379723,E,1,19,0.8,136.999,M,14.362,M,,*76
$GNHDT,262.817,T*23
####
19:34:34.58> $GNGGA,163400.40,5546.89467698,N,03742.64342407,E,1,19,0.8,136.968,M,14.362,M,,*70
$GNHDT,263.706,T*2D
####
19:34:34.78> $GNGGA,163400.60,5546.89464391,N,03742.64303585,E,1,19,0.8,136.958,M,14.362,M,,*70
$GNHDT,264.630,T*2E
####
19:34:34.98> $GNGGA,163400.80,5546.89462680,N,03742.64264327,E,1,19,0.8,136.985,M,14.362,M,,*73
$GNHDT,266.183,T*23
####
19:34:35.19> $GNGGA,163401.00,5546.89462494,N,03742.64225129,E,1,19,0.8,136.979,M,14.362,M,,*77
$GNHDT,266.347,T*29
####
19:34:35.38> $GNGGA,163401.20,5546.89462778,N,03742.64184910,E,1,19,0.8,136.978,M,14.363,M,,*7E
$GNHDT,268.361,T*23
####
19:34:35.58> $GNGGA,163401.40,5546.89464223,N,03742.64144765,E,1,19,0.8,136.985,M,14.363,M,,*77
$GNHDT,270.274,T*2F
####
19:34:35.78> $GNGGA,163401.60,5546.89465085,N,03742.64105055,E,1,19,0.8,136.996,M,14.363,M,,*79
$GNHDT,269.519,T*2B
####
19:34:35.98> $GNGGA,163401.80,5546.89464872,N,03742.64064941,E,1,19,0.8,137.005,M,14.363,M,,*7E
$GNHDT,269.094,T*2B
####
19:34:36.19> $GNGGA,163402.00,5546.89463890,N,03742.64024187,E,1,19,0.8,136.999,M,14.363,M,,*75
$GNHDT,271.483,T*20
####
19:34:36.38> $GNGGA,163402.20,5546.89464819,N,03742.63983219,E,1,19,0.8,136.976,M,14.363,M,,*77
$GNHDT,271.614,T*2C
####
19:34:36.58> $GNGGA,163402.40,5546.89468047,N,03742.63944133,E,1,19,0.8,136.984,M,14.363,M,,*73
$GNHDT,273.554,T*29
####
19:34:36.78> $GNGGA,163402.60,5546.89470980,N,03742.63904498,E,1,19,0.8,136.983,M,14.363,M,,*7D
$GNHDT,272.448,T*24
####
19:34:36.97> $GNGGA,163402.80,5546.89475287,N,03742.63864299,E,1,19,0.8,136.999,M,14.363,M,,*71
$GNHDT,274.419,T*26
####
19:34:37.18> $GNGGA,163403.00,5546.89479988,N,03742.63824337,E,1,19,0.8,137.024,M,14.363,M,,*7F
$GNHDT,275.774,T*2F
####
19:34:37.37> $GNGGA,163403.20,5546.89485462,N,03742.63783097,E,1,19,0.8,137.045,M,14.363,M,,*7B
$GNHDT,278.248,T*28
####
19:34:37.58> $GNGGA,163403.40,5546.89491630,N,03742.63742675,E,1,19,0.8,137.072,M,14.363,M,,*7E
$GNHDT,277.289,T*2A
####
19:34:37.78> $GNGGA,163403.60,5546.89496252,N,03742.63702181,E,1,19,0.8,137.035,M,14.363,M,,*70
$GNHDT,279.037,T*23
####
19:34:37.98> $GNGGA,163403.80,5546.89502088,N,03742.63661876,E,1,19,0.8,137.041,M,14.363,M,,*71
$GNHDT,278.209,T*2D
####
19:34:38.18> $GNGGA,163404.00,5546.89507869,N,03742.63622692,E,1,19,0.8,137.034,M,14.363,M,,*7D
$GNHDT,279.672,T*24
####
19:34:38.38> $GNGGA,163404.20,5546.89511941,N,03742.63585099,E,1,20,0.8,137.036,M,14.363,M,,*78
$GNHDT,279.360,T*22
####
19:34:38.58> $GNGGA,163404.40,5546.89515920,N,03742.63542756,E,1,20,0.8,137.068,M,14.363,M,,*79
$GNHDT,279.711,T*20
####
19:34:38.78> $GNGGA,163404.60,5546.89519001,N,03742.63505049,E,1,20,0.8,137.103,M,14.363,M,,*7B
$GNHDT,279.303,T*27
####
19:34:38.98> $GNGGA,163404.80,5546.89520282,N,03742.63464986,E,1,20,0.8,137.069,M,14.363,M,,*77
$GNHDT,281.007,T*27
####
19:34:39.18> $GNGGA,163405.00,5546.89523790,N,03742.63423606,E,1,20,0.8,137.023,M,14.363,M,,*71
$GNHDT,278.818,T*27
####
19:34:39.38> $GNGGA,163405.20,5546.89529708,N,03742.63384654,E,1,20,0.8,137.059,M,14.363,M,,*78
$GNHDT,279.369,T*2B
####
19:34:39.58> $GNGGA,163405.40,5546.89538112,N,03742.63346295,E,1,20,0.8,137.129,M,14.363,M,,*72
$GNHDT,282.120,T*20
####
19:34:39.78> $GNGGA,163405.60,5546.89543601,N,03742.63308738,E,1,20,0.8,137.122,M,14.363,M,,*7A
$GNHDT,282.760,T*22
####
19:34:39.98> $GNGGA,163405.80,5546.89547795,N,03742.63271712,E,1,20,0.8,137.110,M,14.363,M,,*7A
$GNHDT,280.601,T*26
####
19:34:40.18> $GNGGA,163406.00,5546.89551709,N,03742.63234376,E,1,20,0.8,137.068,M,14.363,M,,*7A
$GNHDT,283.345,T*20
####
19:34:40.37> $GNGGA,163406.20,5546.89559237,N,03742.63194847,E,1,20,0.8,137.069,M,14.363,M,,*79
$GNHDT,284.300,T*26
####
19:34:40.58> $GNGGA,163406.40,5546.89564944,N,03742.63154240,E,1,20,0.8,137.111,M,14.363,M,,*71
$GNHDT,284.857,T*2F
####
19:34:40.78> $GNGGA,163406.60,5546.89569318,N,03742.63113427,E,1,20,0.8,137.147,M,14.363,M,,*7A
$GNHDT,286.307,T*23
####
19:34:40.98> $GNGGA,163406.80,5546.89574940,N,03742.63074729,E,1,20,0.8,137.176,M,14.363,M,,*70
$GNHDT,286.300,T*24
####
19:34:41.18> $GNGGA,163407.00,5546.89581729,N,03742.63036047,E,1,20,0.8,137.220,M,14.363,M,,*7B
$GNHDT,285.715,T*27
####
19:34:41.37> $GNGGA,163407.20,5546.89585853,N,03742.62995885,E,1,20,0.8,137.194,M,14.363,M,,*74
$GNHDT,285.657,T*20
####
19:34:41.57> $GNGGA,163407.40,5546.89584488,N,03742.62955623,E,1,20,0.8,137.146,M,14.363,M,,*78
$GNHDT,288.291,T*23
####
19:34:41.77> $GNGGA,163407.60,5546.89589943,N,03742.62915510,E,1,20,0.8,137.178,M,14.363,M,,*77
$GNHDT,289.918,T*28
####
19:34:41.97> $GNGGA,163407.80,5546.89596592,N,03742.62876141,E,1,20,0.8,137.212,M,14.363,M,,*7C
$GNHDT,287.127,T*22
####
19:34:42.18> $GNGGA,163408.00,5546.89604047,N,03742.62837949,E,1,20,0.8,137.250,M,14.363,M,,*7D
$GNHDT,286.980,T*26
####
19:34:42.37> $GNGGA,163408.20,5546.89611314,N,03742.62799772,E,1,20,0.8,137.266,M,14.363,M,,*76
$GNHDT,290.934,T*2E
####
19:34:42.57> $GNGGA,163408.40,5546.89618143,N,03742.62760460,E,1,20,0.8,137.302,M,14.363,M,,*7C
$GNHDT,288.866,T*21
####
19:34:42.77> $GNGGA,163408.60,5546.89627256,N,03742.62721352,E,1,20,0.8,137.377,M,14.363,M,,*74
$GNHDT,290.611,T*26
####
19:34:42.98> $GNGGA,163408.80,5546.89634016,N,03742.62682034,E,1,20,0.8,137.339,M,14.363,M,,*7F
$GNHDT,290.717,T*21
####
19:34:43.18> $GNGGA,163409.00,5546.89640596,N,03742.62641905,E,1,20,0.8,137.304,M,14.363,M,,*72
$GNHDT,289.148,T*25
####
19:34:43.38> $GNGGA,163409.20,5546.89650045,N,03742.62605608,E,1,20,0.8,137.330,M,14.363,M,,*7F
$GNHDT,283.318,T*28
####
19:34:43.97> $GNGGA,163409.40,5546.89659300,N,03742.62569753,E,1,19,0.8,137.346,M,14.363,M,,*7F
$GNHDT,,*51
$GNGGA,163409.60,5546.89668117,N,03742.62533791,E,1,19,0.8,137.399,M,14.363,M,,*78
$GNHDT,,*51
$GNGGA,163409.80,5546.89676742,N,03742.62496465,E,1,19,0.8,137.466,M,14.363,M,,*7E
$GNHDT,,*51
####
19:34:44.17> $GNGGA,163410.00,5546.89679046,N,03742.62449893,E,1,18,1.2,137.393,M,14.363,M,,*72
$GNHDT,,*51
####
19:34:44.37> $GNGGA,163410.20,5546.89684316,N,03742.62405989,E,1,19,1.2,137.356,M,14.363,M,,*7E
$GNHDT,,*51
####
19:34:44.57> $GNGGA,163410.40,5546.89694215,N,03742.62370998,E,1,19,1.2,137.421,M,14.363,M,,*79
$GNHDT,,*51
####
19:34:44.77> $GNGGA,163410.60,5546.89701823,N,03742.62337150,E,1,19,1.2,137.441,M,14.363,M,,*70
$GNHDT,,*51
####
19:34:44.97> $GNGGA,163410.80,5546.89707217,N,03742.62299760,E,1,19,1.2,137.421,M,14.363,M,,*73
$GNHDT,,*51
####
19:34:45.17> $GNGGA,163411.00,5546.89714345,N,03742.62265236,E,1,19,0.8,137.406,M,14.363,M,,*75
$GNHDT,,*51
####
19:34:45.37> $GNGGA,163411.20,5546.89724287,N,03742.62231954,E,1,19,0.8,137.452,M,14.363,M,,*74
$GNHDT,,*51
####
19:34:45.57> $GNGGA,163411.40,5546.89731140,N,03742.62196212,E,1,19,0.8,137.450,M,14.363,M,,*7B
$GNHDT,,*51
####
19:34:45.77> $GNGGA,163411.60,5546.89736339,N,03742.62160056,E,1,19,0.8,137.460,M,14.363,M,,*7A
$GNHDT,,*51
####
19:34:45.97> $GNGGA,163411.80,5546.89743827,N,03742.62127242,E,1,19,0.8,137.526,M,14.363,M,,*75
$GNHDT,,*51
####
19:34:46.18> $GNGGA,163412.00,5546.89747967,N,03742.62092218,E,1,19,0.8,137.462,M,14.363,M,,*7E
$GNHDT,,*51
####
19:34:46.37> $GNGGA,163412.20,5546.89752261,N,03742.62058451,E,1,19,0.8,137.428,M,14.363,M,,*76
$GNHDT,289.020,T*2A
####
19:34:46.57> $GNGGA,163412.40,5546.89759083,N,03742.62029418,E,1,18,1.2,137.422,M,14.363,M,,*7E
$GNHDT,291.871,T*2F
####
19:34:46.77> $GNGGA,163412.60,5546.89764694,N,03742.61999119,E,1,19,1.2,137.417,M,14.363,M,,*70
$GNHDT,290.665,T*25
####
19:34:46.97> $GNGGA,163412.80,5546.89766292,N,03742.61961630,E,1,19,1.2,137.396,M,14.363,M,,*7B
$GNHDT,289.297,T*24
####
19:34:47.18> $GNGGA,163413.00,5546.89770899,N,03742.61925398,E,1,18,1.2,137.401,M,14.363,M,,*7B
$GNHDT,289.947,T*22
####
19:34:47.37> $GNGGA,163413.20,5546.89773502,N,03742.61891240,E,1,19,1.2,137.433,M,14.363,M,,*7F
$GNHDT,290.557,T*27
####
19:34:47.57> $GNGGA,163413.40,5546.89774560,N,03742.61855618,E,1,19,1.2,137.450,M,14.363,M,,*7E
$GNHDT,286.880,T*27
####
19:34:47.77> $GNGGA,163413.60,5546.89775893,N,03742.61819030,E,1,18,1.2,137.470,M,14.363,M,,*7B
$GNHDT,288.458,T*20
####
19:34:47.97> $GNGGA,163413.80,5546.89781710,N,03742.61785807,E,1,19,1.2,137.409,M,14.363,M,,*73
$GNHDT,287.463,T*27
####
19:34:48.17> $GNGGA,163414.00,5546.89783148,N,03742.61752056,E,1,19,1.2,137.449,M,14.363,M,,*77
$GNHDT,286.348,T*28
####
19:34:48.37> $GNGGA,163414.20,5546.89787840,N,03742.61719491,E,1,19,1.2,137.440,M,14.363,M,,*79
$GNHDT,289.903,T*22
####
19:34:48.58> $GNGGA,163414.40,5546.89792833,N,03742.61687735,E,1,19,1.2,137.434,M,14.363,M,,*77
$GNHDT,288.022,T*29
####
19:34:48.77> $GNGGA,163414.60,5546.89795947,N,03742.61655348,E,1,19,1.2,137.426,M,14.363,M,,*72
$GNHDT,294.706,T*25
####
19:34:48.97> $GNGGA,163414.80,5546.89797109,N,03742.61619847,E,1,19,1.2,137.421,M,14.363,M,,*77
$GNHDT,287.376,T*24
####
19:34:49.18> $GNGGA,163415.00,5546.89799708,N,03742.61584838,E,1,19,1.2,137.472,M,14.363,M,,*7E
$GNHDT,290.588,T*25
####
19:34:49.37> $GNGGA,163415.20,5546.89802994,N,03742.61553628,E,1,19,1.2,137.506,M,14.363,M,,*7D
$GNHDT,286.366,T*24
####
19:34:49.57> $GNGGA,163415.40,5546.89803832,N,03742.61520677,E,1,19,1.2,137.508,M,14.363,M,,*77
$GNHDT,288.218,T*22
####
19:34:49.77> $GNGGA,163415.60,5546.89805380,N,03742.61489152,E,1,19,1.2,137.516,M,14.363,M,,*7C
$GNHDT,283.860,T*2C
####
19:34:49.97> $GNGGA,163415.80,5546.89807788,N,03742.61456373,E,1,19,1.2,137.532,M,14.363,M,,*79
$GNHDT,284.088,T*25
####
19:34:50.57> $GNGGA,163416.00,5546.89808443,N,03742.61422275,E,1,19,1.2,137.562,M,14.363,M,,*78
$GNHDT,,*51
$GNGGA,163416.20,5546.89807952,N,03742.61388233,E,1,20,1.2,137.513,M,14.363,M,,*71
$GNHDT,,*51
$GNGGA,163416.40,5546.89808574,N,03742.61351332,E,1,20,1.2,137.460,M,14.363,M,,*71
$GNHDT,,*51
####
19:34:50.77> $GNGGA,163416.60,5546.89807417,N,03742.61316610,E,1,20,1.2,137.406,M,14.363,M,,*7E
$GNHDT,,*51
####
19:34:50.97> $GNGGA,163416.80,5546.89805724,N,03742.61285535,E,1,20,1.2,137.376,M,14.363,M,,*7E
$GNHDT,,*51
####
19:34:51.17> $GNGGA,163417.00,5546.89807837,N,03742.61256592,E,1,20,1.2,137.333,M,14.363,M,,*7A
$GNHDT,,*51
####
19:34:51.37> $GNGGA,163417.20,5546.89807997,N,03742.61227210,E,1,20,1.2,137.292,M,14.363,M,,*72
$GNHDT,274.008,T*22
####
19:34:51.57> $GNGGA,163417.40,5546.89805511,N,03742.61196593,E,1,20,1.2,137.288,M,14.363,M,,*7A
$GNHDT,273.742,T*2C
####
19:34:51.77> $GNGGA,163417.60,5546.89800360,N,03742.61165259,E,1,20,1.2,137.241,M,14.363,M,,*75
$GNHDT,269.707,T*26
####
19:34:55.57> $GNGGA,163421.00,5546.89662927,N,03742.60745449,E,1,20,0.8,136.788,M,14.364,M,,*7A
$GNHDT,,*51
$GNGGA,163421.20,5546.89653106,N,03742.60731921,E,1,20,0.8,136.704,M,14.364,M,,*75
$GNHDT,,*51
$GNGGA,163421.40,5546.89643040,N,03742.60718602,E,1,20,0.8,136.606,M,14.364,M,,*77
$GNHDT,,*51
####
19:34:55.77> $GNGGA,163421.60,5546.89632287,N,03742.60704272,E,1,20,0.8,136.503,M,14.364,M,,*72
$GNHDT,,*51
####
19:34:55.96> $GNGGA,163421.80,5546.89621855,N,03742.60689898,E,1,20,0.8,136.433,M,14.364,M,,*73
$GNHDT,,*51
####
19:34:56.17> $GNGGA,163422.00,5546.89611159,N,03742.60676283,E,1,20,0.8,136.381,M,14.364,M,,*70
$GNHDT,,*51
####
19:34:56.37> $GNGGA,163422.20,5546.89601596,N,03742.60665000,E,1,20,0.8,136.311,M,14.364,M,,*76
$GNHDT,222.829,T*2A
####
19:34:56.57> $GNGGA,163422.40,5546.89592975,N,03742.60656482,E,1,20,0.8,136.231,M,14.364,M,,*75
$GNHDT,220.408,T*27
####
19:34:56.77> $GNGGA,163422.60,5546.89582451,N,03742.60647651,E,1,20,0.8,136.171,M,14.364,M,,*76
$GNHDT,219.338,T*29
####
19:34:56.97> $GNGGA,163422.80,5546.89573849,N,03742.60641060,E,1,20,0.8,136.149,M,14.364,M,,*7A
$GNHDT,217.210,T*2C
####
19:34:57.18> $GNGGA,163423.00,5546.89564040,N,03742.60635907,E,1,20,0.8,136.108,M,14.364,M,,*7A
$GNHDT,216.909,T*2E
####
19:34:57.37> $GNGGA,163423.20,5546.89554431,N,03742.60631052,E,1,20,0.8,136.091,M,14.364,M,,*75
$GNHDT,214.423,T*29
####
19:34:57.58> $GNGGA,163423.40,5546.89544537,N,03742.60625807,E,1,20,0.8,136.053,M,14.364,M,,*76
$GNHDT,213.709,T*25
####
19:34:57.77> $GNGGA,163423.60,5546.89533845,N,03742.60620129,E,1,20,0.8,135.983,M,14.364,M,,*7B
$GNHDT,213.875,T*21
####
19:34:57.97> $GNGGA,163423.80,5546.89522751,N,03742.60614082,E,1,20,0.8,135.927,M,14.364,M,,*76
$GNHDT,210.278,T*25
####
19:34:58.18> $GNGGA,163424.00,5546.89512154,N,03742.60608004,E,1,20,0.8,135.871,M,14.364,M,,*78
$GNHDT,208.864,T*2B
####
19:34:58.37> $GNGGA,163424.20,5546.89503001,N,03742.60602556,E,1,20,0.8,135.843,M,14.364,M,,*72
$GNHDT,208.597,T*2A
####
19:34:58.57> $GNGGA,163424.40,5546.89494488,N,03742.60597886,E,1,20,0.8,135.822,M,14.364,M,,*76
$GNHDT,207.342,T*2B
####
19:35:00.58> $GNGGA,163426.40,5546.89435602,N,03742.60572029,E,1,20,0.8,135.496,M,14.364,M,,*7A
$GNHDT,207.317,T*2B
####
19:35:00.77> $GNGGA,163426.60,5546.89432415,N,03742.60570067,E,1,20,0.8,135.492,M,14.364,M,,*77
$GNHDT,206.798,T*29
####
19:35:00.97> $GNGGA,163426.80,5546.89427044,N,03742.60568523,E,1,20,0.8,135.458,M,14.364,M,,*77
$GNHDT,206.833,T*27
####
19:35:01.18> $GNGGA,163427.00,5546.89421525,N,03742.60567274,E,1,20,0.8,135.416,M,14.364,M,,*7A
$GNHDT,207.366,T*2D
####
19:35:01.38> $GNGGA,163427.20,5546.89415999,N,03742.60565165,E,1,20,0.8,135.376,M,14.364,M,,*74
$GNHDT,202.100,T*2A
####
19:35:01.57> $GNGGA,163427.40,5546.89410117,N,03742.60563204,E,1,20,0.8,135.340,M,14.364,M,,*7E
$GNHDT,200.858,T*2C
####
19:35:01.78> $GNGGA,163427.60,5546.89404022,N,03742.60560447,E,1,20,0.8,135.314,M,14.364,M,,*7D
$GNHDT,200.119,T*20
####
19:35:01.97> $GNGGA,163427.80,5546.89396173,N,03742.60557630,E,1,19,0.8,135.274,M,14.364,M,,*71
$GNHDT,199.951,T*27
####
19:35:02.18> $GNGGA,163428.00,5546.89388988,N,03742.60554073,E,1,19,0.8,135.245,M,14.364,M,,*75
$GNHDT,199.711,T*2D
####
19:35:02.37> $GNGGA,163428.20,5546.89381440,N,03742.60550110,E,1,20,0.8,135.209,M,14.364,M,,*75
$GNHDT,201.387,T*24
####
19:35:02.58> $GNGGA,163428.40,5546.89373384,N,03742.60547101,E,1,20,0.8,135.184,M,14.364,M,,*71
$GNHDT,201.748,T*23
####
19:35:02.77> $GNGGA,163428.60,5546.89364565,N,03742.60544239,E,1,20,0.8,135.163,M,14.364,M,,*7E
$GNHDT,200.821,T*22
####
19:35:02.97> $GNGGA,163428.80,5546.89355476,N,03742.60539913,E,1,20,0.8,135.149,M,14.364,M,,*70
$GNHDT,200.293,T*21
####
19:35:03.18> $GNGGA,163429.00,5546.89347549,N,03742.60533321,E,1,20,0.8,135.205,M,14.364,M,,*7D
$GNHDT,199.576,T*2E
####
19:35:03.37> $GNGGA,163429.20,5546.89337828,N,03742.60527783,E,1,20,0.8,135.215,M,14.364,M,,*7A
$GNHDT,199.096,T*25
####
19:35:03.57> $GNGGA,163429.40,5546.89326655,N,03742.60524088,E,1,20,0.8,135.190,M,14.364,M,,*79
$GNHDT,197.201,T*27
####
19:35:03.77> $GNGGA,163429.60,5546.89316592,N,03742.60520604,E,1,19,0.8,135.197,M,14.364,M,,*7B
$GNHDT,198.565,T*2D
####
19:35:03.97> $GNGGA,163429.80,5546.89307431,N,03742.60515499,E,1,19,0.8,135.234,M,14.364,M,,*77
$GNHDT,198.998,T*23
####
19:35:04.18> $GNGGA,163430.00,5546.89296793,N,03742.60513775,E,1,19,0.8,135.240,M,14.364,M,,*71
$GNHDT,198.725,T*2B
####
19:35:04.37> $GNGGA,163430.20,5546.89285008,N,03742.60512757,E,1,18,0.8,135.234,M,14.364,M,,*77
$GNHDT,197.061,T*23
####
19:35:04.57> $GNGGA,163430.40,5546.89273301,N,03742.60511403,E,1,18,0.8,135.190,M,14.364,M,,*7E
$GNHDT,199.558,T*22
####
19:35:04.77> $GNGGA,163430.60,5546.89261371,N,03742.60510317,E,1,18,0.8,135.152,M,14.364,M,,*75
$GNHDT,200.577,T*2C
####
19:35:04.97> $GNGGA,163430.80,5546.89249793,N,03742.60508939,E,1,18,0.8,135.175,M,14.364,M,,*73
$GNHDT,197.871,T*2A
####
19:35:05.18> $GNGGA,163431.00,5546.89239140,N,03742.60507937,E,1,17,0.8,135.226,M,14.364,M,,*7E
$GNHDT,198.293,T*23
####
19:35:05.37> $GNGGA,163431.20,5546.89227658,N,03742.60507003,E,1,17,0.8,135.237,M,14.364,M,,*73
$GNHDT,193.645,T*27
####
